$GPVTG,,T,,M,0.00,N,0.0,K,D*16                                                  
$GPGGA,155954.000,3247.2172,N,07954.5710,W,2,07,1.5,-10.2,M,-32.2,M,0.8,0000*59 
$GPRMC,155954.000,A,3247.2172,N,07954.5710,W,0.00,,140914,,,D*6F                
$GPVTG,,T,,M,0.00,N,0.0,K,D*16                                                  
$GPGGA,155955.000,3247.2171,N,07954.5710,W,2,07,1.5,-10.5,M,-32.2,M,0.8,0000*5C 
$GPRMC,155955.000,A,3247.2171,N,07954.5710,W,0.00,,140914,,,D*6D                
$GPVTG,,T,,M,0.00,N,0.0,K,D*16                                                  
$GPGGA,155956.000,3247.2169,N,07954.5710,W,2,07,1.5,-10.8,M,-32.2,M,0.8,0000*5B 
$GPRMC,155956.000,A,3247.2169,N,07954.5710,W,0.00,,140914,,,D*67                
$GPVTG,,T,,M,0.00,N,0.0,K,D*16                                                  
$GPGGA,155957.000,3247.2168,N,07954.5710,W,2,07,1.5,-11.1,M,-32.2,M,1.8,0000*52 
$GPGSA,A,3,11,28,20,01,30,07,17,,,,,,3.1,1.5,2.7*3A                             
$GPGSV,3,1,12,28,70,014,32,24,54,057,,17,53,297,35,01,46,049,35*76              
$GPGSV,3,2,12,30,44,192,34,11,25,048,40,20,25,115,30,06,21,210,19*77            
$GPGSV,3,3,12,04,17,211,,07,17,171,22,32,13,071,23,08,09,163,*7D                
$GPRMC,155957.000,A,3247.2168,N,07954.5710,W,0.00,,140914,,,D*67                
$GPVTG,,T,,M,0.00,N,0.0,K,D*16                                                  
$GPGGA,155958.000,3247.2167,N,07954.5710,W,2,07,1.5,-11.3,M,-32.2,M,2.8,0000*53 
$GPRMC,155958.000,A,3247.2167,N,07954.5710,W,0.00,,140914,,,D*67                
$GPVTG,,T,,M,0.00,N,0.0,K,D*16                                                  
$GPGGA,155959.000,3247.2166,N,07954.5710,W,2,07,1.5,-11.5,M,-32.2,M,0.8,0000*57 
$GPRMC,155959.000,A,3247.2166,N,07954.5710,W,0.00,,140914,,,D*67                
$GPVTG,,T,,M,0.00,N,0.0,K,D*16                                                  
$GPGGA,160000.000,3247.2165,N,07954.5711,W,2,07,1.5,-11.8,M,-32.2,M,0.8,0000*5B 
$GPRMC,160000.000,A,3247.2165,N,07954.5711,W,0.00,,140914,,,D*66                
$GPVTG,,T,,M,0.00,N,0.0,K,D*16                                                  
$GPGGA,160001.000,3247.2164,N,07954.5711,W,2,07,1.5,-12.1,M,-32.2,M,0.8,0000*51 
$GPRMC,160001.000,A,3247.2164,N,07954.5711,W,0.00,,140914,,,D*66                
$GPVTG,,T,,M,0.00,N,0.0,K,D*16                                                  
$GPGGA,160002.000,3247.2164,N,07954.5712,W,2,07,1.5,-12.4,M,-32.2,M,0.8,0000*54 
$GPGSA,A,3,11,28,20,01,30,07,17,,,,,,3.1,1.5,2.7*3A                             
$GPGSV,3,1,12,28,70,014,32,24,54,057,,17,53,297,34,01,46,049,35*77              
$GPGSV,3,2,12,30,44,192,34,11,25,048,41,20,25,115,30,06,21,210,19*76            
$GPGSV,3,3,12,04,17,211,,07,17,171,23,32,13,071,23,08,09,163,*7C                
$GPRMC,160002.000,A,3247.2164,N,07954.5712,W,0.00,,140914,,,D*66                
$GPVTG,,T,,M,0.00,N,0.0,K,D*16                                                  
$GPGGA,160003.000,3247.2163,N,07954.5712,W,2,07,1.5,-12.6,M,-32.2,M,1.8,0000*51 
$GPRMC,160003.000,A,3247.2163,N,07954.5712,W,0.00,,140914,,,D*60                
$GPVTG,,T,,M,0.00,N,0.0,K,D*16                                                  
$GPGGA,160004.000,3247.2162,N,07954.5712,W,2,07,1.5,-12.8,M,-32.2,M,2.8,0000*5A 
$GPRMC,160004.000,A,3247.2162,N,07954.5712,W,0.00,,140914,,,D*66                
$GPVTG,,T,,M,0.00,N,0.0,K,D*16                                                  
$GPGGA,160005.000,3247.2162,N,07954.5713,W,2,07,1.5,-13.2,M,-32.2,M,0.8,0000*53 
$GPRMC,160005.000,A,3247.2162,N,07954.5713,W,0.00,,140914,,,D*66                
$GPVTG,,T,,M,0.00,N,0.0,K,D*16                                                  
$GPGGA,160006.000,3247.2161,N,07954.5713,W,2,07,1.5,-13.4,M,-32.2,M,0.8,0000*55 
$GPRMC,160006.000,A,3247.2161,N,07954.5713,W,0.00,,140914,,,D*66                
$GPVTG,,T,,M,0.00,N,0.0,K,D*16                                                  
$GPGGA,160007.000,3247.2161,N,07954.5713,W,2,07,1.5,-13.6,M,-32.2,M,0.8,0000*56 
$GPGSA,A,3,11,28,20,01,30,07,17,,,,,,3.1,1.5,2.7*3A                             
$GPGSV,3,1,12,28,70,014,32,24,54,057,,17,53,297,34,01,46,049,35*77              
$GPGSV,3,2,12,30,44,192,34,11,25,048,41,20,25,115,29,06,21,210,22*76            
$GPGSV,3,3,12,04,17,211,,07,17,171,24,32,13,071,24,08,09,163,*7C                
$GPRMC,160007.000,A,3247.2161,N,07954.5713,W,0.00,,140914,,,D*67                
$GPVTG,,T,,M,0.00,N,0.0,K,D*16                                                  
$GPGGA,160008.000,3247.2161,N,07954.5713,W,2,07,1.5,-13.8,M,-32.2,M,0.8,0000*57 
$GPRMC,160008.000,A,3247.2161,N,07954.5713,W,0.00,,140914,,,D*68                
$GPVTG,,T,,M,0.00,N,0.0,K,D*16                                                  
$GPGGA,160009.000,3247.2161,N,07954.5714,W,2,07,1.5,-14.1,M,-32.2,M,0.8,0000*5F 
$GPRMC,160009.000,A,3247.2161,N,07954.5714,W,0.00,,140914,,,D*6E                
$GPVTG,,T,,M,0.00,N,0.0,K,D*16                                                  
$GPGGA,160010.000,3247.2161,N,07954.5715,W,2,07,1.5,-14.3,M,-32.2,M,1.8,0000*55 
$GPRMC,160010.000,A,3247.2161,N,07954.5715,W,0.00,,140914,,,D*67                
$GPVTG,,T,,M,0.00,N,0.0,K,D*16                                                  
$GPGGA,160011.000,3247.2161,N,07954.5716,W,2,07,1.5,-14.6,M,-32.2,M,0.8,0000*53 
$GPRMC,160011.000,A,3247.2161,N,07954.5716,W,0.00,,140914,,,D*65                
$GPVTG,,T,,M,0.00,N,0.0,K,D*16                                                  
$GPGGA,160012.000,3247.2161,N,07954.5716,W,2,07,1.5,-14.7,M,-32.2,M,0.8,0000*51 
$GPGSA,A,3,11,28,20,01,30,07,17,,,,,,3.1,1.5,2.7*3A                             
$GPGSV,3,1,12,28,70,014,32,24,54,057,,17,53,297,34,01,46,049,35*77              
$GPGSV,3,2,12,30,44,192,33,11,25,048,41,20,25,115,24,06,21,210,16*7B            
$GPGSV,3,3,12,04,17,211,,07,17,171,29,32,13,071,29,08,09,163,*7C                
$GPRMC,160012.000,A,3247.2161,N,07954.5716,W,0.00,,140914,,,D*66                
$GPVTG,,T,,M,0.00,N,0.0,K,D*16                                                  
$GPGGA,160013.000,3247.2161,N,07954.5717,W,2,07,1.5,-14.9,M,-32.2,M,0.8,0000*5F 
$GPRMC,160013.000,A,3247.2161,N,07954.5717,W,0.00,,140914,,,D*66                
$GPVTG,,T,,M,0.00,N,0.0,K,D*16                                                  
$GPGGA,160014.000,3247.2160,N,07954.5717,W,2,07,1.5,-15.1,M,-32.2,M,1.8,0000*51 
$GPRMC,160014.000,A,3247.2160,N,07954.5717,W,0.00,,140914,,,D*60                
$GPVTG,,T,,M,0.00,N,0.0,K,D*16                                                  
$GPGGA,160015.000,3247.2160,N,07954.5718,W,2,07,1.5,-15.3,M,-32.2,M,2.8,0000*5E 
$GPRMC,160015.000,A,3247.2160,N,07954.5718,W,0.00,,140914,,,D*6E                
$GPVTG,,T,,M,0.00,N,0.0,K,D*16                                                  
$GPGGA,160016.000,3247.2160,N,07954.5718,W,2,07,1.5,-15.4,M,-32.2,M,3.8,0000*5B 
$GPRMC,160016.000,A,3247.2160,N,07954.5718,W,0.00,,140914,,,D*6D                
$GPVTG,,T,,M,0.00,N,0.0,K,D*16                                                  
$GPGGA,160017.000,3247.2160,N,07954.5719,W,2,07,1.5,-15.6,M,-32.2,M,0.8,0000*5A 
$GPGSA,A,3,11,28,20,01,30,07,17,,,,,,3.1,1.5,2.7*3A                             
$GPGSV,3,1,12,28,70,014,32,24,54,056,,17,53,297,34,01,46,049,35*76              
$GPGSV,3,2,12,30,44,192,33,20,25,114,30,11,25,048,41,06,21,210,16*7F            
$GPGSV,3,3,12,04,18,211,,07,16,171,27,32,13,071,28,08,09,163,*7D                
$GPRMC,160017.000,A,3247.2160,N,07954.5719,W,0.00,,140914,,,D*6D                
$GPVTG,,T,,M,0.00,N,0.0,K,D*16                                                  
$GPGGA,160018.000,3247.2160,N,07954.5719,W,2,07,1.5,-16.0,M,-32.2,M,0.8,0000*50 
$GPRMC,160018.000,A,3247.2160,N,07954.5719,W,0.00,,140914,,,D*62                
$GPVTG,,T,,M,0.00,N,0.0,K,D*16                                                  
$GPGGA,160019.000,3247.2160,N,07954.5720,W,2,07,1.5,-16.1,M,-32.2,M,0.8,0000*5A 
$GPRMC,160019.000,A,3247.2160,N,07954.5720,W,0.00,,140914,,,D*69                
$GPVTG,,T,,M,0.00,N,0.0,K,D*16                                                  
$GPGGA,160020.000,3247.2160,N,07954.5720,W,2,07,1.5,-16.3,M,-32.2,M,1.8,0000*53 
$GPRMC,160020.000,A,3247.2160,N,07954.5720,W,0.00,,140914,,,D*63                
$GPVTG,,T,,M,0.00,N,0.0,K,D*16                                                  
$GPGGA,160021.000,3247.2160,N,07954.5720,W,2,07,1.5,-16.4,M,-32.2,M,2.8,0000*56 
$GPRMC,160021.000,A,3247.2160,N,07954.5720,W,0.00,,140914,,,D*62                
$GPVTG,,T,,M,0.00,N,0.0,K,D*16                                                  
$GPGGA,160022.000,3247.2160,N,07954.5720,W,2,07,1.5,-16.7,M,-32.2,M,3.8,0000*57 
$GPGSA,A,3,11,28,20,01,30,07,17,,,,,,3.1,1.5,2.7*3A                             
$GPGSV,3,1,12,28,70,014,33,24,54,056,,17,53,297,35,01,46,049,34*77              
$GPGSV,3,2,12,30,44,192,34,20,25,114,29,11,25,048,40,06,21,210,24*70            
$GPGSV,3,3,12,04,18,211,,07,16,171,23,32,13,071,25,08,09,163,*74                
$GPRMC,160022.000,A,3247.2160,N,07954.5720,W,0.00,,140914,,,D*61                
$GPVTG,,T,,M,0.00,N,0.0,K,D*16                                                  
$GPGGA,160023.000,3247.2160,N,07954.5720,W,2,07,1.5,-16.8,M,-32.2,M,0.8,0000*5A 
$GPRMC,160023.000,A,3247.2160,N,07954.5720,W,0.00,,140914,,,D*60                
$GPVTG,,T,,M,0.00,N,0.0,K,D*16                                                  
$GPGGA,160024.000,3247.2159,N,07954.5720,W,2,07,1.5,-16.5,M,-32.2,M,1.8,0000*5B 
$GPRMC,160024.000,A,3247.2159,N,07954.5720,W,0.00,,140914,,,D*6D                
$GPVTG,,T,,M,0.00,N,0.0,K,D*16                                                  
$GPGGA,160025.000,3247.2159,N,07954.5719,W,2,07,1.5,-16.1,M,-32.2,M,2.8,0000*57 
$GPRMC,160025.000,A,3247.2159,N,07954.5719,W,0.00,,140914,,,D*66                
$GPVTG,,T,,M,0.00,N,0.0,K,D*16                                                  
$GPGGA,160026.000,3247.2159,N,07954.5718,W,2,07,1.5,-15.9,M,-32.2,M,3.8,0000*5F 
$GPRMC,160026.000,A,3247.2159,N,07954.5718,W,0.00,,140914,,,D*64                
$GPVTG,,T,,M,0.00,N,0.0,K,D*16                                                  
$GPGGA,160027.000,3247.2159,N,07954.5717,W,2,07,1.5,-15.5,M,-32.2,M,4.8,0000*5A 
$GPGSA,A,3,11,28,20,01,30,07,17,,,,,,3.1,1.5,2.7*3A                             
$GPGSV,3,1,12,28,70,014,34,24,54,056,,17,53,297,35,01,46,049,33*77              
$GPGSV,3,2,12,30,44,192,34,20,25,114,25,11,25,048,40,06,21,210,24*7C            
$GPGSV,3,3,12,04,18,211,,07,16,171,23,32,13,071,28,08,09,163,*79                
$GPRMC,160027.000,A,3247.2159,N,07954.5717,W,0.00,,140914,,,D*6A                
$GPVTG,,T,,M,0.00,N,0.0,K,D*16                                                  
$GPGGA,160028.000,3247.2159,N,07954.5716,W,2,07,1.5,-15.1,M,-32.2,M,5.8,0000*51 
$GPRMC,160028.000,A,3247.2159,N,07954.5716,W,0.00,,140914,,,D*64                
$GPVTG,,T,,M,0.00,N,0.0,K,D*16                                                  
$GPGGA,160029.000,3247.2159,N,07954.5716,W,2,07,1.5,-14.9,M,-32.2,M,6.8,0000*5A 
$GPRMC,160029.000,A,3247.2159,N,07954.5716,W,0.00,,140914,,,D*65                
$GPVTG,,T,,M,0.00,N,0.0,K,D*16                                                  
$GPGGA,160030.000,3247.2158,N,07954.5715,W,2,07,1.5,-14.6,M,-32.2,M,7.8,0000*5E 
$GPRMC,160030.000,A,3247.2158,N,07954.5715,W,0.00,,140914,,,D*6F                
$GPVTG,,T,,M,0.00,N,0.0,K,D*16                                                  
$GPGGA,160031.000,3247.2158,N,07954.5714,W,2,07,1.5,-14.4,M,-32.2,M,8.8,0000*53 
$GPRMC,160031.000,A,3247.2158,N,07954.5714,W,0.00,,140914,,,D*6F                
$GPVTG,,T,,M,0.00,N,0.0,K,D*16                                                  
$GPGGA,160032.000,3247.2158,N,07954.5714,W,2,07,1.5,-14.3,M,-32.2,M,9.8,0000*56 
$GPGSA,A,3,11,28,20,01,30,07,17,,,,,,3.1,1.5,2.7*3A                             
$GPGSV,3,1,12,28,70,014,34,24,54,056,,17,53,297,35,01,46,049,32*76              
$GPGSV,3,2,12,30,44,192,34,20,25,114,31,11,25,048,41,06,21,210,20*7C            
$GPGSV,3,3,12,04,18,211,,07,16,171,24,32,13,071,28,08,09,163,*7E                
$GPRMC,160032.000,A,3247.2158,N,07954.5714,W,0.00,,140914,,,D*6C                
$GPVTG,,T,,M,0.00,N,0.0,K,D*16                                                  
$GPGGA,160033.000,3247.2157,N,07954.5714,W,2,07,1.5,-14.2,M,-32.2,M,0.8,0000*50 
$GPRMC,160033.000,A,3247.2157,N,07954.5714,W,0.00,,140914,,,D*62                
$GPVTG,,T,,M,0.00,N,0.0,K,D*16                                                  
$GPGGA,160034.000,3247.2157,N,07954.5714,W,2,07,1.5,-14.1,M,-32.2,M,1.8,0000*55 
$GPRMC,160034.000,A,3247.2157,N,07954.5714,W,0.00,,140914,,,D*65                
$GPVTG,,T,,M,0.00,N,0.0,K,D*16                                                  
$GPGGA,160035.000,3247.2156,N,07954.5713,W,2,07,1.5,-14.1,M,-32.2,M,0.8,0000*53 
$GPRMC,160035.000,A,3247.2156,N,07954.5713,W,0.00,,140914,,,D*62                
$GPVTG,,T,,M,0.00,N,0.0,K,D*16                                                  
$GPGGA,160036.000,3247.2156,N,07954.5713,W,2,07,1.5,-13.9,M,-32.2,M,0.8,0000*5F 
$GPRMC,160036.000,A,3247.2156,N,07954.5713,W,0.00,,140914,,,D*61                
$GPVTG,,T,,M,0.00,N,0.0,K,D*16                                                  
$GPGGA,160037.000,3247.2156,N,07954.5712,W,2,07,1.5,-13.8,M,-32.2,M,0.8,0000*5E 
$GPGSA,A,3,11,28,20,01,30,07,17,,,,,,3.1,1.5,2.7*3A                             
$GPGSV,3,1,12,28,70,014,34,24,54,056,,17,53,297,35,01,46,049,32*76              
$GPGSV,3,2,12,30,44,192,34,20,25,114,31,11,25,048,40,06,21,210,19*77            
$GPGSV,3,3,12,04,18,211,,07,16,171,24,32,13,071,29,08,09,163,*7F                
$GPRMC,160037.000,A,3247.2156,N,07954.5712,W,0.00,,140914,,,D*61                
$GPVTG,,T,,M,0.00,N,0.0,K,D*16                                                  
$GPGGA,160038.000,3247.2156,N,07954.5712,W,2,07,1.5,-13.7,M,-32.2,M,1.8,0000*5F 
$GPRMC,160038.000,A,3247.2156,N,07954.5712,W,0.00,,140914,,,D*6E                
$GPVTG,,T,,M,0.00,N,0.0,K,D*16                                                  
$GPGGA,160039.000,3247.2156,N,07954.5712,W,2,07,1.5,-13.6,M,-32.2,M,2.8,0000*5C 
$GPRMC,160039.000,A,3247.2156,N,07954.5712,W,0.00,,140914,,,D*6F                
$GPVTG,,T,,M,0.00,N,0.0,K,D*16                                                  
$GPGGA,160040.000,3247.2156,N,07954.5711,W,2,07,1.5,-13.5,M,-32.2,M,3.8,0000*53 
$GPRMC,160040.000,A,3247.2156,N,07954.5711,W,0.00,,140914,,,D*62                
$GPVTG,,T,,M,0.00,N,0.0,K,D*16                                                  
$GPGGA,160041.000,3247.2156,N,07954.5711,W,2,07,1.5,-13.3,M,-32.2,M,0.8,0000*57 
$GPRMC,160041.000,A,3247.2156,N,07954.5711,W,0.00,,140914,,,D*63                
$GPVTG,,T,,M,0.00,N,0.0,K,D*16                                                  
$GPGGA,160042.000,3247.2157,N,07954.5710,W,2,07,1.5,-13.3,M,-32.2,M,0.8,0000*54 
$GPGSA,A,3,11,28,20,01,30,07,17,,,,,,3.1,1.5,2.7*3A                             
$GPGSV,3,1,12,28,70,014,34,24,54,056,,17,53,297,35,01,46,049,32*76              
$GPGSV,3,2,12,30,44,192,34,20,25,114,30,11,25,048,40,06,21,210,19*76            
$GPGSV,3,3,12,04,18,211,,07,16,171,27,32,13,071,30,08,09,163,*74                
$GPRMC,160042.000,A,3247.2157,N,07954.5710,W,0.00,,140914,,,D*60                
$GPVTG,,T,,M,0.00,N,0.0,K,D*16                                                  
$GPGGA,160043.000,3247.2157,N,07954.5710,W,2,07,1.5,-13.2,M,-32.2,M,0.8,0000*54 
$GPRMC,160043.000,A,3247.2157,N,07954.5710,W,0.00,,140914,,,D*61                
$GPVTG,,T,,M,0.00,N,0.0,K,D*16                                                  
$GPGGA,160044.000,3247.2157,N,07954.5710,W,2,07,1.5,-13.1,M,-32.2,M,1.8,0000*51 
$GPRMC,160044.000,A,3247.2157,N,07954.5710,W,0.00,,140914,,,D*66                
$GPVTG,,T,,M,0.00,N,0.0,K,D*16                                                  
$GPGGA,160045.000,3247.2157,N,07954.5709,W,2,07,1.5,-13.1,M,-32.2,M,2.8,0000*5B 
$GPRMC,160045.000,A,3247.2157,N,07954.5709,W,0.00,,140914,,,D*6F                
$GPVTG,,T,,M,0.00,N,0.0,K,D*16                                                  
$GPGGA,160046.000,3247.2157,N,07954.5709,W,2,07,1.5,-13.0,M,-32.2,M,3.8,0000*58 
$GPRMC,160046.000,A,3247.2157,N,07954.5709,W,0.00,,140914,,,D*6C                
$GPVTG,,T,,M,0.00,N,0.0,K,D*16                                                  
$GPGGA,160047.000,3247.2157,N,07954.5709,W,2,07,1.5,-12.9,M,-32.2,M,0.8,0000*52 
$GPGSA,A,3,11,28,20,01,30,07,17,,,,,,3.1,1.5,2.7*3A                             
$GPGSV,3,1,12,28,70,015,34,24,54,056,,17,53,297,36,01,46,049,33*75              
$GPGSV,3,2,12,30,43,192,35,20,26,114,30,11,25,048,40,06,21,210,20*79            
$GPGSV,3,3,12,04,18,211,,07,16,171,27,32,13,071,31,08,08,163,*74                
$GPRMC,160047.000,A,3247.2157,N,07954.5709,W,0.00,,140914,,,D*6D                
$GPVTG,,T,,M,0.00,N,0.0,K,D*16                                                  
$GPGGA,160048.000,3247.2157,N,07954.5708,W,2,07,1.5,-12.7,M,-32.2,M,0.8,0000*52 
$GPRMC,160048.000,A,3247.2157,N,07954.5708,W,0.00,,140914,,,D*63                
$GPVTG,,T,,M,0.00,N,0.0,K,D*16                                                  
$GPGGA,160049.000,3247.2157,N,07954.5708,W,2,07,1.5,-12.4,M,-32.2,M,0.8,0000*50 
$GPRMC,160049.000,A,3247.2157,N,07954.5708,W,0.00,,140914,,,D*62                
$GPVTG,,T,,M,0.00,N,0.0,K,D*16                                                  
$GPGGA,160050.000,3247.2157,N,07954.5707,W,2,07,1.5,-12.2,M,-32.2,M,1.8,0000*50 
$GPRMC,160050.000,A,3247.2157,N,07954.5707,W,0.00,,140914,,,D*65                
$GPVTG,,T,,M,0.00,N,0.0,K,D*16                                                  
$GPGGA,160051.000,3247.2157,N,07954.5707,W,2,07,1.5,-12.2,M,-32.2,M,2.8,0000*52 
$GPRMC,160051.000,A,3247.2157,N,07954.5707,W,0.00,,140914,,,D*64                
$GPVTG,,T,,M,0.00,N,0.0,K,D*16                                                  
$GPGGA,160052.000,3247.2157,N,07954.5707,W,2,07,1.5,-12.1,M,-32.2,M,3.8,0000*53 
$GPGSA,A,3,11,28,20,01,30,07,17,,,,,,3.1,1.5,2.7*3A                             
$GPGSV,3,1,12,28,70,015,34,24,54,056,,17,53,297,36,01,46,049,34*72              
$GPGSV,3,2,12,30,43,192,35,20,26,114,30,11,25,048,40,06,21,210,20*79            
$GPGSV,3,3,12,04,18,211,,07,16,171,28,32,13,071,31,08,08,163,*7B                
$GPRMC,160052.000,A,3247.2157,N,07954.5707,W,0.00,,140914,,,D*67                
$GPVTG,,T,,M,0.00,N,0.0,K,D*16                                                  
$GPGGA,160053.000,3247.2157,N,07954.5707,W,2,07,1.5,-12.2,M,-32.2,M,0.8,0000*52 
$GPRMC,160053.000,A,3247.2157,N,07954.5707,W,0.00,,140914,,,D*66                
$GPVTG,,T,,M,0.00,N,0.0,K,D*16                                                  
$GPGGA,160054.000,3247.2157,N,07954.5707,W,2,07,1.5,-12.2,M,-32.2,M,0.8,0000*55 
$GPRMC,160054.000,A,3247.2157,N,07954.5707,W,0.00,,140914,,,D*61                
$GPVTG,,T,,M,0.00,N,0.0,K,D*16                                                  
$GPGGA,160055.000,3247.2157,N,07954.5707,W,2,07,1.5,-12.3,M,-32.2,M,0.8,0000*55 
$GPRMC,160055.000,A,3247.2157,N,07954.5707,W,0.00,,140914,,,D*60                
$GPVTG,,T,,M,0.00,N,0.0,K,D*16                                                  
$GPGGA,160056.000,3247.2157,N,07954.5707,W,2,08,1.4,-12.3,M,-32.2,M,,0000*7E    
$GPRMC,160056.000,A,3247.2157,N,07954.5707,W,0.00,,140914,,,D*63                
$GPVTG,,T,,M,0.00,N,0.0,K,D*16                                                  
$GPGGA,160057.000,3247.2157,N,07954.5708,W,2,08,1.4,-12.4,M,-32.2,M,,0000*77    
$GPGSA,A,3,11,28,20,01,30,07,17,32,,,,,2.8,1.4,2.4*31                           
$GPGSV,3,1,12,28,70,015,34,24,54,056,,17,53,298,36,01,46,049,35*7C              
$GPGSV,3,2,12,30,43,191,35,20,26,114,30,11,25,048,39,06,21,210,20*74            
$GPGSV,3,3,12,04,18,211,,07,16,171,27,32,13,071,30,08,08,163,*75                
$GPRMC,160057.000,A,3247.2157,N,07954.5708,W,0.00,,140914,,,D*6D                
$GPVTG,,T,,M,0.00,N,0.0,K,D*16                                                  
$GPGGA,160058.000,3247.2157,N,07954.5708,W,2,08,1.4,-12.5,M,-32.2,M,1.8,0000*5E 
$GPRMC,160058.000,A,3247.2157,N,07954.5708,W,0.00,,140914,,,D*62                
$GPVTG,,T,,M,0.00,N,0.0,K,D*16                                                  
$GPGGA,160059.000,3247.2157,N,07954.5708,W,2,08,1.4,-12.6,M,-32.2,M,,0000*7B    
$GPRMC,160059.000,A,3247.2157,N,07954.5708,W,0.00,,140914,,,D*63                
$GPVTG,,T,,M,0.00,N,0.0,K,D*16                                                  
$GPGGA,160100.000,3247.2157,N,07954.5709,W,2,08,1.4,-12.7,M,-32.2,M,,0000*76    
$GPRMC,160100.000,A,3247.2157,N,07954.5709,W,0.00,,140914,,,D*6F                
$GPVTG,,T,,M,0.00,N,0.0,K,D*16                                                  
$GPGGA,160101.000,3247.2157,N,07954.5709,W,2,08,1.4,-12.7,M,-32.2,M,,0000*77    
$GPRMC,160101.000,A,3247.2157,N,07954.5709,W,0.00,,140914,,,D*6E                
$GPVTG,,T,,M,0.00,N,0.0,K,D*16                                                  
$GPGGA,160102.000,3247.2157,N,07954.5709,W,2,08,1.4,-12.6,M,-32.2,M,,0000*75    
$GPGSA,A,3,11,28,20,01,30,07,17,32,,,,,2.8,1.4,2.4*31                           
$GPGSV,3,1,12,28,70,015,34,24,54,056,,17,53,298,36,01,46,049,34*7D              
$GPGSV,3,2,12,30,43,191,35,20,26,114,30,11,25,048,40,06,21,210,19*70            
$GPGSV,3,3,12,04,18,211,,07,16,171,21,32,13,071,30,08,08,163,*73                
$GPRMC,160102.000,A,3247.2157,N,07954.5709,W,0.00,,140914,,,D*6D                
$GPVTG,,T,,M,0.00,N,0.0,K,D*16                                                  
$GPGGA,160103.000,3247.2157,N,07954.5708,W,2,08,1.4,-12.4,M,-32.2,M,,0000*77    
$GPRMC,160103.000,A,3247.2157,N,07954.5708,W,0.00,,140914,,,D*6D                
$GPVTG,,T,,M,0.00,N,0.0,K,D*16                                                  
$GPGGA,160104.000,3247.2157,N,07954.5708,W,2,08,1.4,-12.2,M,-32.2,M,1.8,0000*51 
$GPRMC,160104.000,A,3247.2157,N,07954.5708,W,0.00,,140914,,,D*6A                
$GPVTG,,T,,M,0.00,N,0.0,K,D*16                                                  
$GPGGA,160105.000,3247.2158,N,07954.5708,W,2,08,1.4,-12.1,M,-32.2,M,,0000*7B    
$GPRMC,160105.000,A,3247.2158,N,07954.5708,W,0.00,,140914,,,D*64                
$GPVTG,,T,,M,0.00,N,0.0,K,D*16                                                  
$GPGGA,160106.000,3247.2158,N,07954.5707,W,2,08,1.4,-12.2,M,-32.2,M,,0000*74    
$GPRMC,160106.000,A,3247.2158,N,07954.5707,W,0.00,,140914,,,D*68                
$GPVTG,,T,,M,0.00,N,0.0,K,D*16                                                  
$GPGGA,160107.000,3247.2157,N,07954.5707,W,2,08,1.4,-12.2,M,-32.2,M,,0000*7A    
$GPGSA,A,3,11,28,20,01,30,07,17,32,,,,,2.8,1.4,2.4*31                           
$GPGSV,3,1,12,28,70,015,34,24,54,056,,17,53,298,36,01,46,049,35*7C              
$GPGSV,3,2,12,30,43,191,35,20,26,114,25,11,25,048,40,06,21,210,27*79            
$GPGSV,3,3,12,04,18,211,,07,16,171,28,32,13,071,31,08,08,163,*7B                
$GPRMC,160107.000,A,3247.2157,N,07954.5707,W,0.00,,140914,,,D*66                
$GPVTG,,T,,M,0.00,N,0.0,K,D*16                                                  
$GPGGA,160108.000,3247.2157,N,07954.5707,W,2,08,1.4,-12.2,M,-32.2,M,,0000*75    
$GPRMC,160108.000,A,3247.2157,N,07954.5707,W,0.00,,140914,,,D*69                
$GPVTG,,T,,M,0.00,N,0.0,K,D*16                                                  
$GPGGA,160109.000,3247.2157,N,07954.5708,W,2,08,1.4,-12.2,M,-32.2,M,1.8,0000*5C 
$GPRMC,160109.000,A,3247.2157,N,07954.5708,W,0.00,,140914,,,D*67                
$GPVTG,,T,,M,0.00,N,0.0,K,D*16                                                  
$GPGGA,160110.000,3247.2157,N,07954.5708,W,2,08,1.4,-12.3,M,-32.2,M,2.8,0000*56 
$GPRMC,160110.000,A,3247.2157,N,07954.5708,W,0.00,,140914,,,D*6F                
$GPVTG,,T,,M,0.00,N,0.0,K,D*16                                                  
$GPGGA,160111.000,3247.2157,N,07954.5708,W,2,08,1.4,-12.3,M,-32.2,M,,0000*73    
$GPRMC,160111.000,A,3247.2157,N,07954.5708,W,0.00,,140914,,,D*6E                
$GPVTG,,T,,M,0.00,N,0.0,K,D*16                                                  
$GPGGA,160112.000,3247.2157,N,07954.5708,W,2,08,1.4,-12.3,M,-32.2,M,,0000*70    
$GPGSA,A,3,11,28,20,01,30,07,17,32,,,,,2.8,1.4,2.3*36                           
$GPGSV,3,1,12,28,70,015,34,24,54,056,,17,53,298,37,01,46,049,35*7D              
$GPGSV,3,2,12,30,43,191,35,20,26,114,26,11,25,048,40,06,21,210,15*7B            
$GPGSV,3,3,12,04,18,211,,07,16,171,27,32,13,071,28,08,08,163,*7C                
$GPRMC,160112.000,A,3247.2157,N,07954.5708,W,0.00,,140914,,,D*6D                
$GPVTG,,T,,M,0.00,N,0.0,K,D*16                                                  
$GPGGA,160113.000,3247.2157,N,07954.5708,W,2,08,1.4,-12.2,M,-32.2,M,,0000*70    
$GPRMC,160113.000,A,3247.2157,N,07954.5708,W,0.00,,140914,,,D*6C                
$GPVTG,,T,,M,0.00,N,0.0,K,D*16                                                  
$GPGGA,160114.000,3247.2157,N,07954.5708,W,2,08,1.4,-12.3,M,-32.2,M,1.8,0000*51 
$GPRMC,160114.000,A,3247.2157,N,07954.5708,W,0.00,,140914,,,D*6B                
$GPVTG,,T,,M,0.00,N,0.0,K,D*16                                                  
$GPGGA,160115.000,3247.2156,N,07954.5708,W,2,08,1.4,-12.4,M,-32.2,M,2.8,0000*55 
$GPRMC,160115.000,A,3247.2156,N,07954.5708,W,0.00,,140914,,,D*6B                
$GPVTG,,T,,M,0.00,N,0.0,K,D*16                                                  
$GPGGA,160116.000,3247.2156,N,07954.5706,W,2,08,1.4,-11.7,M,-32.2,M,3.8,0000*59 
$GPRMC,160116.000,A,3247.2156,N,07954.5706,W,0.00,,140914,,,D*66                
$GPVTG,,T,,M,0.00,N,0.0,K,D*16                                                  
$GPGGA,160117.000,3247.2155,N,07954.5705,W,2,08,1.4,-11.1,M,-32.2,M,,0000*7B    
$GPGSA,A,3,11,28,20,01,30,07,17,32,,,,,2.8,1.4,2.3*36                           
$GPGSV,3,1,12,28,70,016,35,24,54,056,,17,54,298,37,01,45,049,36*78              
$GPGSV,3,2,12,30,43,191,35,20,26,114,25,11,25,048,41,06,21,210,17*7B            
$GPGSV,3,3,12,04,18,212,,07,16,171,24,32,13,071,30,08,08,163,*75                
$GPRMC,160117.000,A,3247.2155,N,07954.5705,W,0.00,,140914,,,D*67                
$GPVTG,,T,,M,0.00,N,0.0,K,D*16                                                  
$GPGGA,160118.000,3247.2156,N,07954.5704,W,2,08,1.4,-10.7,M,-32.2,M,,0000*71    
$GPRMC,160118.000,A,3247.2156,N,07954.5704,W,0.00,,140914,,,D*6A                
$GPVTG,,T,,M,0.00,N,0.0,K,D*16                                                  
$GPGGA,160119.000,3247.2156,N,07954.5704,W,2,08,1.4,-10.5,M,-32.2,M,,0000*72    
$GPRMC,160119.000,A,3247.2156,N,07954.5704,W,0.00,,140914,,,D*6B                
$GPVTG,,T,,M,0.00,N,0.0,K,D*16                                                  
$GPGGA,160120.000,3247.2155,N,07954.5703,W,2,08,1.4,-10.3,M,-32.2,M,1.8,0000*5D 
$GPRMC,160120.000,A,3247.2155,N,07954.5703,W,0.00,,140914,,,D*65                
$GPVTG,,T,,M,0.00,N,0.0,K,D*16                                                  
$GPGGA,160121.000,3247.2155,N,07954.5703,W,2,08,1.4,-10.1,M,-32.2,M,,0000*79    
$GPRMC,160121.000,A,3247.2155,N,07954.5703,W,0.00,,140914,,,D*64                
$GPVTG,,T,,M,0.00,N,0.0,K,D*16                                                  
$GPGGA,160122.000,3247.2156,N,07954.5702,W,2,08,1.4,-9.8,M,-32.2,M,1.8,0000*6E  
$GPGSA,A,3,11,28,20,01,30,07,17,32,,,,,2.8,1.4,2.3*36                           
$GPGSV,3,1,12,28,70,016,35,24,54,056,,17,54,298,37,01,45,049,35*7B              
$GPGSV,3,2,12,30,43,191,34,20,26,114,26,11,25,048,41,06,21,210,13*7D            
$GPGSV,3,3,12,04,18,212,,07,16,171,21,32,13,071,33,08,08,163,*73                
$GPRMC,160122.000,A,3247.2156,N,07954.5702,W,0.00,,140914,,,D*65                
$GPVTG,,T,,M,0.00,N,0.0,K,D*16                                                  
$GPGGA,160123.000,3247.2156,N,07954.5702,W,2,08,1.4,-9.6,M,-32.2,M,2.8,0000*62  
$GPRMC,160123.000,A,3247.2156,N,07954.5702,W,0.00,,140914,,,D*64                
$GPVTG,,T,,M,0.00,N,0.0,K,D*16                                                  
$GPGGA,160124.000,3247.2157,N,07954.5701,W,2,08,1.4,-9.3,M,-32.2,M,,0000*46     
$GPRMC,160124.000,A,3247.2157,N,07954.5701,W,0.00,,140914,,,D*61                
$GPVTG,,T,,M,0.00,N,0.0,K,D*16                                                  
$GPGGA,160125.000,3247.2156,N,07954.5701,W,2,08,1.4,-9.2,M,-32.2,M,,0000*47     
$GPRMC,160125.000,A,3247.2156,N,07954.5701,W,0.00,,140914,,,D*61                
$GPVTG,,T,,M,0.00,N,0.0,K,D*16                                                  
$GPGGA,160126.000,3247.2156,N,07954.5700,W,2,08,1.4,-8.8,M,-32.2,M,1.8,0000*69  
$GPRMC,160126.000,A,3247.2156,N,07954.5700,W,0.00,,140914,,,D*63                
$GPVTG,,T,,M,0.00,N,0.0,K,D*16                                                  
$GPGGA,160127.000,3247.2157,N,07954.5699,W,2,08,1.4,-8.6,M,-32.2,M,2.8,0000*65  
$GPGSA,A,3,11,28,20,01,30,07,17,32,,,,,2.8,1.4,2.3*36                           
$GPGSV,3,1,12,28,70,016,36,24,54,056,,17,54,298,37,01,45,049,35*78              
$GPGSV,3,2,12,30,43,191,34,20,26,114,27,11,25,048,40,06,21,210,19*77            
$GPGSV,3,3,12,04,18,212,,07,16,171,23,32,13,071,33,08,08,163,*71                
$GPRMC,160127.000,A,3247.2157,N,07954.5699,W,0.00,,140914,,,D*62                
$GPVTG,,T,,M,0.00,N,0.0,K,D*16                                                  
$GPGGA,160128.000,3247.2157,N,07954.5699,W,2,08,1.4,-8.4,M,-32.2,M,3.8,0000*69  
$GPRMC,160128.000,A,3247.2157,N,07954.5699,W,0.00,,140914,,,D*6D                
$GPVTG,,T,,M,0.00,N,0.0,K,D*16                                                  
$GPGGA,160129.000,3247.2157,N,07954.5698,W,2,07,1.6,-8.2,M,-32.2,M,,0000*47     
$GPRMC,160129.000,A,3247.2157,N,07954.5698,W,0.00,,140914,,,D*6D                
$GPVTG,,T,,M,0.00,N,0.0,K,D*16                                                  
$GPGGA,160130.000,3247.2157,N,07954.5698,W,2,07,1.6,-8.1,M,-32.2,M,,0000*4C     
$GPRMC,160130.000,A,3247.2157,N,07954.5698,W,0.00,,140914,,,D*65                
$GPVTG,,T,,M,0.00,N,0.0,K,D*16                                                  
$GPGGA,160131.000,3247.2157,N,07954.5697,W,2,06,1.9,-7.9,M,-32.2,M,,0000*4B     
$GPRMC,160131.000,A,3247.2157,N,07954.5697,W,0.00,,140914,,,D*6B                
$GPVTG,,T,,M,0.00,N,0.0,K,D*16                                                  
$GPGGA,160132.000,3247.2157,N,07954.5697,W,2,06,1.9,-7.8,M,-32.2,M,,0000*49     
$GPGSA,A,3,11,28,01,30,17,32,,,,,,,3.4,1.9,2.8*38                               
$GPGSV,3,1,12,28,70,016,35,24,54,056,,17,54,298,37,01,45,049,34*7A              
$GPGSV,3,2,12,30,43,191,35,20,26,114,,11,25,048,41,06,21,210,28*70              
$GPGSV,3,3,12,04,18,212,,07,16,171,,32,13,071,30,08,08,163,*73                  
$GPRMC,160132.000,A,3247.2157,N,07954.5697,W,0.00,,140914,,,D*68                
$GPVTG,,T,,M,0.00,N,0.0,K,D*16                                                  
$GPGGA,160133.000,3247.2157,N,07954.5697,W,2,07,1.6,-7.7,M,-32.2,M,,0000*49     
$GPRMC,160133.000,A,3247.2157,N,07954.5697,W,0.00,,140914,,,D*69                
$GPVTG,,T,,M,0.00,N,0.0,K,D*16                                                  
$GPGGA,160134.000,3247.2157,N,07954.5696,W,2,07,1.6,-7.6,M,-32.2,M,1.8,0000*69  
$GPRMC,160134.000,A,3247.2157,N,07954.5696,W,0.00,,140914,,,D*6F                
$GPVTG,,T,,M,0.00,N,0.0,K,D*16                                                  
$GPGGA,160135.000,3247.2157,N,07954.5696,W,2,07,1.6,-7.5,M,-32.2,M,,0000*4C     
$GPRMC,160135.000,A,3247.2157,N,07954.5696,W,0.00,,140914,,,D*6E                
$GPVTG,,T,,M,0.00,N,0.0,K,D*16                                                  
$GPGGA,160136.000,3247.2157,N,07954.5696,W,2,08,1.4,-7.5,M,-32.2,M,,0000*42     
$GPRMC,160136.000,A,3247.2157,N,07954.5696,W,0.00,,140914,,,D*6D                
$GPVTG,,T,,M,0.00,N,0.0,K,D*16                                                  
$GPGGA,160137.000,3247.2157,N,07954.5696,W,2,08,1.4,-7.4,M,-32.2,M,,0000*42     
$GPGSA,A,3,11,28,20,01,30,07,17,32,,,,,2.7,1.4,2.3*39                           
$GPGSV,3,1,12,28,70,016,35,24,54,056,,17,54,298,36,01,45,049,34*7B              
$GPGSV,3,2,12,30,43,191,36,20,26,114,30,11,25,048,40,06,21,210,19*73            
$GPGSV,3,3,12,04,18,212,,07,16,171,20,32,13,071,28,08,08,163,*78                
$GPRMC,160137.000,A,3247.2157,N,07954.5696,W,0.00,,140914,,,D*6C                
$GPVTG,,T,,M,0.00,N,0.0,K,D*16                                                  
$GPGGA,160138.000,3247.2156,N,07954.5696,W,2,08,1.4,-7.4,M,-32.2,M,,0000*4C     
$GPRMC,160138.000,A,3247.2156,N,07954.5696,W,0.00,,140914,,,D*62                
$GPVTG,,T,,M,0.00,N,0.0,K,D*16                                                  
$GPGGA,160139.000,3247.2156,N,07954.5697,W,2,08,1.4,-7.4,M,-32.2,M,1.8,0000*6B  
$GPRMC,160139.000,A,3247.2156,N,07954.5697,W,0.00,,140914,,,D*62                
$GPVTG,,T,,M,0.00,N,0.0,K,D*16                                                  
$GPGGA,160140.000,3247.2156,N,07954.5697,W,2,08,1.4,-7.4,M,-32.2,M,2.8,0000*66  
$GPRMC,160140.000,A,3247.2156,N,07954.5697,W,0.00,,140914,,,D*6C                
$GPVTG,,T,,M,0.00,N,0.0,K,D*16                                                  
$GPGGA,160141.000,3247.2156,N,07954.5697,W,2,08,1.4,-7.6,M,-32.2,M,,0000*41     
$GPRMC,160141.000,A,3247.2156,N,07954.5697,W,0.00,,140914,,,D*6D                
$GPVTG,,T,,M,0.00,N,0.0,K,D*16                                                  
$GPGGA,160142.000,3247.2156,N,07954.5697,W,2,08,1.4,-7.4,M,-32.2,M,,0000*40     
$GPGSA,A,3,11,28,20,01,30,07,17,32,,,,,2.7,1.4,2.3*39                           
$GPGSV,3,1,12,28,70,016,35,24,54,056,,17,54,298,36,01,45,049,34*7B              
$GPGSV,3,2,12,30,43,191,36,20,26,114,26,11,25,048,40,06,21,210,17*7A            
$GPGSV,3,3,12,04,18,212,,07,16,171,23,32,13,071,21,08,08,163,*72                
$GPRMC,160142.000,A,3247.2156,N,07954.5697,W,0.00,,140914,,,D*6E                
$GPVTG,,T,,M,0.00,N,0.0,K,D*16                                                  
$GPGGA,160143.000,3247.2157,N,07954.5696,W,2,08,1.4,-7.3,M,-32.2,M,,0000*46     
$GPRMC,160143.000,A,3247.2157,N,07954.5696,W,0.00,,140914,,,D*6F                
$GPVTG,,T,,M,0.00,N,0.0,K,D*16                                                  
$GPGGA,160144.000,3247.2157,N,07954.5696,W,2,08,1.4,-7.2,M,-32.2,M,,0000*40     
$GPRMC,160144.000,A,3247.2157,N,07954.5696,W,0.00,,140914,,,D*68                
$GPVTG,,T,,M,0.00,N,0.0,K,D*16                                                  
$GPGGA,160145.000,3247.2157,N,07954.5695,W,2,08,1.4,-7.1,M,-32.2,M,1.8,0000*66  
$GPRMC,160145.000,A,3247.2157,N,07954.5695,W,0.00,,140914,,,D*6A                
$GPVTG,,T,,M,0.00,N,0.0,K,D*16                                                  
$GPGGA,160146.000,3247.2157,N,07954.5695,W,2,08,1.4,-7.0,M,-32.2,M,2.8,0000*67  
$GPRMC,160146.000,A,3247.2157,N,07954.5695,W,0.00,,140914,,,D*69                
$GPVTG,,T,,M,0.00,N,0.0,K,D*16                                                  
$GPGGA,160147.000,3247.2157,N,07954.5694,W,2,08,1.4,-6.7,M,-32.2,M,,0000*45     
$GPGSA,A,3,11,28,20,01,30,07,17,32,,,,,2.7,1.4,2.3*39                           
$GPGSV,3,1,12,28,71,016,35,17,54,298,37,01,45,048,34,30,43,191,36*76            
$GPGSV,3,2,12,20,26,114,26,11,25,048,39,06,21,210,27,04,18,212,*73              
$GPGSV,3,3,12,07,16,171,17,32,13,070,16,08,08,163,,03,02,074,*7E                
$GPRMC,160147.000,A,3247.2157,N,07954.5694,W,0.00,,140914,,,D*69                
$GPVTG,,T,,M,0.00,N,0.0,K,D*16                                                  
$GPGGA,160148.000,3247.2156,N,07954.5692,W,2,09,1.4,-6.5,M,-32.2,M,0.8,0000*68  
$GPRMC,160148.000,A,3247.2156,N,07954.5692,W,0.00,,140914,,,D*61                
$GPVTG,,T,,M,0.00,N,0.0,K,D*16                                                  
$GPGGA,160149.000,3247.2156,N,07954.5692,W,2,09,1.4,-6.3,M,-32.2,M,0.8,0000*6F  
$GPRMC,160149.000,A,3247.2156,N,07954.5692,W,0.00,,140914,,,D*60                
$GPVTG,,T,,M,0.00,N,0.0,K,D*16                                                  
$GPGGA,160150.000,3247.2156,N,07954.5691,W,2,09,1.4,-6.2,M,-32.2,M,1.8,0000*64  
$GPRMC,160150.000,A,3247.2156,N,07954.5691,W,0.00,,140914,,,D*6B                
$GPVTG,,T,,M,0.00,N,0.0,K,D*16                                                  
$GPGGA,160151.000,3247.2156,N,07954.5690,W,2,09,1.4,-6.1,M,-32.2,M,2.8,0000*64  
$GPRMC,160151.000,A,3247.2156,N,07954.5690,W,0.00,,140914,,,D*6B                
$GPVTG,,T,,M,0.00,N,0.0,K,D*16                                                  
$GPGGA,160152.000,3247.2155,N,07954.5690,W,2,09,1.4,-5.9,M,-32.2,M,3.8,0000*6E  
$GPGSA,A,3,11,28,20,01,30,07,17,32,08,,,,2.6,1.4,2.1*32                         
$GPGSV,3,1,12,28,71,016,34,17,54,298,37,01,45,048,34,30,43,191,36*77            
$GPGSV,3,2,12,20,26,114,22,11,25,048,39,06,21,210,24,04,18,212,*74              
$GPGSV,3,3,12,07,16,171,19,32,13,070,25,08,08,163,25,03,02,074,*77              
$GPRMC,160152.000,A,3247.2155,N,07954.5690,W,0.00,,140914,,,D*6B                
$GPVTG,,T,,M,0.00,N,0.0,K,D*16                                                  
$GPGGA,160153.000,3247.2155,N,07954.5691,W,2,09,1.4,-6.1,M,-32.2,M,0.8,0000*66  
$GPRMC,160153.000,A,3247.2155,N,07954.5691,W,0.00,,140914,,,D*6B                
$GPVTG,,T,,M,0.00,N,0.0,K,D*16                                                  
$GPGGA,160154.000,3247.2156,N,07954.5692,W,2,09,1.4,-6.3,M,-32.2,M,0.8,0000*63  
$GPRMC,160154.000,A,3247.2156,N,07954.5692,W,0.00,,140914,,,D*6C                
$GPVTG,,T,,M,0.00,N,0.0,K,D*16                                                  
$GPGGA,160155.000,3247.2156,N,07954.5693,W,2,09,1.4,-6.5,M,-32.2,M,0.8,0000*65  
$GPRMC,160155.000,A,3247.2156,N,07954.5693,W,0.00,,140914,,,D*6C                
$GPVTG,,T,,M,0.00,N,0.0,K,D*16                                                  
$GPGGA,160156.000,3247.2157,N,07954.5692,W,2,09,1.4,-6.4,M,-32.2,M,1.8,0000*66  
$GPRMC,160156.000,A,3247.2157,N,07954.5692,W,0.00,,140914,,,D*6F                
$GPVTG,,T,,M,0.00,N,0.0,K,D*16                                                  
$GPGGA,160157.000,3247.2157,N,07954.5692,W,2,09,1.4,-6.3,M,-32.2,M,2.8,0000*63  
$GPGSA,A,3,11,28,20,01,30,07,17,32,08,,,,2.6,1.4,2.1*32                         
$GPGSV,3,1,12,28,71,016,34,17,54,298,38,01,45,048,34,30,43,191,35*7B            
$GPGSV,3,2,12,20,26,114,22,11,25,048,40,06,21,210,23,04,18,212,*7D              
$GPGSV,3,3,12,07,16,171,19,32,13,070,25,08,08,163,26,03,02,074,*74              
$GPRMC,160157.000,A,3247.2157,N,07954.5692,W,0.00,,140914,,,D*6E                
$GPVTG,,T,,M,0.00,N,0.0,K,D*16                                                  
$GPGGA,160158.000,3247.2157,N,07954.5692,W,2,09,1.4,-6.4,M,-32.2,M,3.8,0000*6A  
$GPRMC,160158.000,A,3247.2157,N,07954.5692,W,0.00,,140914,,,D*61                
$GPVTG,,T,,M,0.00,N,0.0,K,D*16                                                  
$GPGGA,160159.000,3247.2157,N,07954.5691,W,2,09,1.4,-6.4,M,-32.2,M,0.8,0000*6B  
$GPRMC,160159.000,A,3247.2157,N,07954.5691,W,0.00,,140914,,,D*63                
$GPVTG,,T,,M,0.00,N,0.0,K,D*16                                                  
$GPGGA,160200.000,3247.2157,N,07954.5692,W,2,09,1.4,-6.4,M,-32.2,M,1.8,0000*66  
$GPRMC,160200.000,A,3247.2157,N,07954.5692,W,0.00,,140914,,,D*6F                
$GPVTG,,T,,M,0.00,N,0.0,K,D*16                                                  
$GPGGA,160201.000,3247.2157,N,07954.5692,W,2,09,1.4,-6.5,M,-32.2,M,0.8,0000*67  
$GPRMC,160201.000,A,3247.2157,N,07954.5692,W,0.00,,140914,,,D*6E                
$GPVTG,,T,,M,0.00,N,0.0,K,D*16                                                  
$GPGGA,160202.000,3247.2158,N,07954.5692,W,2,09,1.4,-6.5,M,-32.2,M,1.8,0000*6A  
$GPGSA,A,3,11,28,20,01,30,07,17,32,08,,,,2.6,1.4,2.1*32                         
$GPGSV,3,1,12,28,71,016,34,17,54,298,39,01,45,048,35,30,43,191,35*7B            
$GPGSV,3,2,12,20,26,114,26,11,25,048,40,06,21,210,15,04,18,212,*7C              
$GPGSV,3,3,12,07,16,171,26,32,13,070,31,08,08,163,26,03,02,074,*7D              
$GPRMC,160202.000,A,3247.2158,N,07954.5692,W,0.00,,140914,,,D*62                
$GPVTG,,T,,M,0.00,N,0.0,K,D*16                                                  
$GPGGA,160203.000,3247.2158,N,07954.5692,W,2,09,1.4,-6.6,M,-32.2,M,0.8,0000*69  
$GPRMC,160203.000,A,3247.2158,N,07954.5692,W,0.00,,140914,,,D*63                
$GPVTG,,T,,M,0.00,N,0.0,K,D*16                                                  
$GPGGA,160204.000,3247.2158,N,07954.5693,W,2,09,1.4,-6.7,M,-32.2,M,1.8,0000*6F  
$GPRMC,160204.000,A,3247.2158,N,07954.5693,W,0.00,,140914,,,D*65                
$GPVTG,,T,,M,0.00,N,0.0,K,D*16                                                  
$GPGGA,160205.000,3247.2158,N,07954.5693,W,2,08,1.8,-6.7,M,-32.2,M,0.8,0000*62  
$GPRMC,160205.000,A,3247.2158,N,07954.5693,W,0.00,,140914,,,D*64                
$GPVTG,,T,,M,0.00,N,0.0,K,D*16                                                  
$GPGGA,160206.000,3247.2158,N,07954.5693,W,2,08,1.8,-6.7,M,-32.2,M,0.8,0000*61  
$GPRMC,160206.000,A,3247.2158,N,07954.5693,W,0.00,,140914,,,D*67                
$GPVTG,,T,,M,0.00,N,0.0,K,D*16                                                  
$GPGGA,160207.000,3247.2158,N,07954.5692,W,2,09,1.4,-6.7,M,-32.2,M,0.8,0000*6C  
$GPGSA,A,3,11,28,20,01,30,07,17,32,08,,,,2.5,1.4,2.1*31                         
$GPGSV,3,1,12,28,71,016,33,17,54,298,39,01,45,048,35,30,43,191,36*7F            
$GPGSV,3,2,12,20,26,114,32,11,25,048,40,06,21,210,23,04,18,212,*7C              
$GPGSV,3,3,12,07,16,171,27,32,13,070,29,08,08,163,25,03,02,074,*76              
$GPRMC,160207.000,A,3247.2158,N,07954.5692,W,0.00,,140914,,,D*67                
$GPVTG,,T,,M,0.00,N,0.0,K,D*16                                                  
$GPGGA,160208.000,3247.2158,N,07954.5692,W,2,09,1.4,-6.6,M,-32.2,M,1.8,0000*63  
$GPRMC,160208.000,A,3247.2158,N,07954.5692,W,0.00,,140914,,,D*68                
$GPVTG,,T,,M,0.00,N,0.0,K,D*16                                                  
$GPGGA,160209.000,3247.2158,N,07954.5691,W,2,09,1.4,-6.5,M,-32.2,M,0.8,0000*63  
$GPRMC,160209.000,A,3247.2158,N,07954.5691,W,0.00,,140914,,,D*6A                
$GPVTG,,T,,M,0.00,N,0.0,K,D*16                                                  
$GPGGA,160210.000,3247.2158,N,07954.5691,W,2,09,1.4,-6.5,M,-32.2,M,1.8,0000*6A  
$GPRMC,160210.000,A,3247.2158,N,07954.5691,W,0.00,,140914,,,D*62                
$GPVTG,,T,,M,0.00,N,0.0,K,D*16                                                  
$GPGGA,160211.000,3247.2157,N,07954.5690,W,2,09,1.4,-6.5,M,-32.2,M,0.8,0000*64  
$GPRMC,160211.000,A,3247.2157,N,07954.5690,W,0.00,,140914,,,D*6D                
$GPVTG,,T,,M,0.00,N,0.0,K,D*16                                                  
$GPGGA,160212.000,3247.2157,N,07954.5690,W,2,09,1.4,-6.4,M,-32.2,M,0.8,0000*66  
$GPGSA,A,3,11,28,20,01,30,07,17,32,08,,,,2.5,1.4,2.1*31                         
$GPGSV,3,1,12,28,71,016,32,17,54,298,40,01,45,048,35,30,43,191,36*70            
$GPGSV,3,2,12,20,26,114,30,11,25,048,40,06,21,210,24,04,18,212,*79              
$GPGSV,3,3,12,07,16,171,19,32,13,070,29,08,08,163,21,03,02,074,*7F              
$GPRMC,160212.000,A,3247.2157,N,07954.5690,W,0.00,,140914,,,D*6E                
$GPVTG,,T,,M,0.00,N,0.0,K,D*16                                                  
$GPGGA,160213.000,3247.2157,N,07954.5690,W,2,09,1.4,-6.5,M,-32.2,M,0.8,0000*66  
$GPRMC,160213.000,A,3247.2157,N,07954.5690,W,0.00,,140914,,,D*6F                
$GPVTG,,T,,M,0.00,N,0.0,K,D*16                                                  
$GPGGA,160214.000,3247.2156,N,07954.5690,W,2,09,1.4,-6.6,M,-32.2,M,1.8,0000*62  
$GPRMC,160214.000,A,3247.2156,N,07954.5690,W,0.00,,140914,,,D*69                
$GPVTG,,T,,M,0.00,N,0.0,K,D*16                                                  
$GPGGA,160215.000,3247.2156,N,07954.5690,W,2,09,1.4,-6.6,M,-32.2,M,2.8,0000*60  
$GPRMC,160215.000,A,3247.2156,N,07954.5690,W,0.00,,140914,,,D*68                
$GPVTG,,T,,M,0.00,N,0.0,K,D*16                                                  
$GPGGA,160216.000,3247.2156,N,07954.5690,W,2,09,1.4,-6.4,M,-32.2,M,0.8,0000*63  
$GPRMC,160216.000,A,3247.2156,N,07954.5690,W,0.00,,140914,,,D*6B                
$GPVTG,,T,,M,0.00,N,0.0,K,D*16                                                  
$GPGGA,160217.000,3247.2156,N,07954.5690,W,2,09,1.4,-6.3,M,-32.2,M,0.8,0000*65  
$GPGSA,A,3,11,28,20,01,30,07,17,32,08,,,,2.5,1.4,2.1*31                         
$GPGSV,3,1,12,28,71,016,32,17,54,298,41,01,45,048,36,30,43,191,37*73            
$GPGSV,3,2,12,20,26,114,30,11,25,048,39,06,21,210,24,04,18,212,*77              
$GPGSV,3,3,12,07,16,171,24,32,13,070,29,08,08,163,12,03,02,074,*71              
$GPRMC,160217.000,A,3247.2156,N,07954.5690,W,0.00,,140914,,,D*6A                
$GPVTG,,T,,M,0.00,N,0.0,K,D*16                                                  
$GPGGA,160218.000,3247.2156,N,07954.5690,W,2,09,1.4,-6.4,M,-32.2,M,0.8,0000*6D  
$GPRMC,160218.000,A,3247.2156,N,07954.5690,W,0.00,,140914,,,D*65                
$GPVTG,,T,,M,0.00,N,0.0,K,D*16                                                  
$GPGGA,160219.000,3247.2156,N,07954.5689,W,2,09,1.4,-6.4,M,-32.2,M,0.8,0000*64  
$GPRMC,160219.000,A,3247.2156,N,07954.5689,W,0.00,,140914,,,D*6C                
$GPVTG,,T,,M,0.00,N,0.0,K,D*16                                                  
$GPGGA,160220.000,3247.2156,N,07954.5689,W,2,09,1.4,-6.3,M,-32.2,M,0.8,0000*69  
$GPRMC,160220.000,A,3247.2156,N,07954.5689,W,0.00,,140914,,,D*66                
$GPVTG,,T,,M,0.00,N,0.0,K,D*16                                                  
$GPGGA,160221.000,3247.2156,N,07954.5688,W,2,09,1.4,-6.2,M,-32.2,M,0.8,0000*68  
$GPRMC,160221.000,A,3247.2156,N,07954.5688,W,0.00,,140914,,,D*66                
$GPVTG,,T,,M,0.00,N,0.0,K,D*16                                                  
$GPGGA,160222.000,3247.2157,N,07954.5688,W,2,09,1.4,-6.1,M,-32.2,M,1.8,0000*68  
$GPGSA,A,3,11,28,20,01,30,07,17,32,08,,,,2.5,1.4,2.1*31                         
$GPGSV,3,1,12,28,71,016,32,17,54,298,41,01,45,048,36,30,43,191,38*7C            
$GPGSV,3,2,12,20,26,114,30,11,25,048,39,06,21,210,12,04,18,212,*72              
$GPGSV,3,3,12,07,16,171,29,32,13,070,29,08,08,163,13,03,02,074,*7D              
$GPRMC,160222.000,A,3247.2157,N,07954.5688,W,0.00,,140914,,,D*64                
$GPVTG,,T,,M,0.00,N,0.0,K,D*16                                                  
$GPGGA,160223.000,3247.2157,N,07954.5687,W,2,09,1.4,-6.0,M,-32.2,M,0.8,0000*66  
$GPRMC,160223.000,A,3247.2157,N,07954.5687,W,0.00,,140914,,,D*6A                
$GPVTG,,T,,M,0.00,N,0.0,K,D*16                                                  
$GPGGA,160224.000,3247.2157,N,07954.5687,W,2,09,1.4,-5.9,M,-32.2,M,0.8,0000*6B  
$GPRMC,160224.000,A,3247.2157,N,07954.5687,W,0.00,,140914,,,D*6D                
$GPVTG,,T,,M,0.00,N,0.0,K,D*16                                                  
$GPGGA,160225.000,3247.2156,N,07954.5687,W,2,09,1.4,-5.9,M,-32.2,M,0.8,0000*6B  
$GPRMC,160225.000,A,3247.2156,N,07954.5687,W,0.00,,140914,,,D*6D                
$GPVTG,,T,,M,0.00,N,0.0,K,D*16                                                  
$GPGGA,160226.000,3247.2156,N,07954.5687,W,2,09,1.4,-5.8,M,-32.2,M,0.8,0000*69  
$GPRMC,160226.000,A,3247.2156,N,07954.5687,W,0.00,,140914,,,D*6E                
$GPVTG,,T,,M,0.00,N,0.0,K,D*16                                                  
$GPGGA,160227.000,3247.2156,N,07954.5687,W,2,09,1.4,-5.9,M,-32.2,M,1.8,0000*68  
$GPGSA,A,3,11,28,20,01,30,07,17,32,08,,,,2.5,1.4,2.1*31                         
$GPGSV,3,1,12,28,71,016,32,17,54,298,41,01,45,048,36,30,43,191,38*7C            
$GPGSV,3,2,12,20,26,114,30,11,25,048,39,06,21,210,20,04,18,212,*73              
$GPGSV,3,3,12,07,16,171,29,32,13,070,28,08,08,163,22,03,02,074,*7E              
$GPRMC,160227.000,A,3247.2156,N,07954.5687,W,0.00,,140914,,,D*6F                
$GPVTG,,T,,M,0.00,N,0.0,K,D*16                                                  
$GPGGA,160228.000,3247.2156,N,07954.5687,W,2,09,1.4,-5.8,M,-32.2,M,2.8,0000*65  
$GPRMC,160228.000,A,3247.2156,N,07954.5687,W,0.00,,140914,,,D*60                
$GPVTG,,T,,M,0.00,N,0.0,K,D*16                                                  
$GPGGA,160229.000,3247.2156,N,07954.5687,W,2,08,1.4,-5.8,M,-32.2,M,,0000*41     
$GPRMC,160229.000,A,3247.2156,N,07954.5687,W,0.00,,140914,,,D*61                
$GPVTG,,T,,M,0.00,N,0.0,K,D*16                                                  
$GPGGA,160230.000,3247.2156,N,07954.5687,W,2,08,1.4,-5.9,M,-32.2,M,,0000*48     
$GPRMC,160230.000,A,3247.2156,N,07954.5687,W,0.00,,140914,,,D*69                
$GPVTG,,T,,M,0.00,N,0.0,K,D*16                                                  
$GPGGA,160231.000,3247.2156,N,07954.5687,W,2,08,1.4,-5.9,M,-32.2,M,,0000*49     
$GPRMC,160231.000,A,3247.2156,N,07954.5687,W,0.00,,140914,,,D*68                
$GPVTG,,T,,M,0.00,N,0.0,K,D*16                                                  
$GPGGA,160232.000,3247.2156,N,07954.5686,W,2,08,1.4,-6.0,M,-32.2,M,1.8,0000*66  
$GPGSA,A,3,11,28,20,01,30,07,17,32,,,,,2.7,1.4,2.3*39                           
$GPGSV,3,1,12,28,71,016,32,17,54,298,41,01,45,048,36,30,43,191,39*7D            
$GPGSV,3,2,12,20,26,114,31,11,25,048,39,06,21,210,18,04,18,212,*79              
$GPGSV,3,3,12,07,16,171,25,32,13,070,29,08,08,163,,03,02,074,*73                
$GPRMC,160232.000,A,3247.2156,N,07954.5686,W,0.00,,140914,,,D*6A                
$GPVTG,,T,,M,0.00,N,0.0,K,D*16                                                  
$GPGGA,160233.000,3247.2156,N,07954.5686,W,2,08,1.4,-6.0,M,-32.2,M,2.8,0000*64  
$GPRMC,160233.000,A,3247.2156,N,07954.5686,W,0.00,,140914,,,D*6B                
$GPVTG,,T,,M,0.00,N,0.0,K,D*16                                                  
$GPGGA,160234.000,3247.2156,N,07954.5686,W,2,08,1.4,-6.1,M,-32.2,M,3.8,0000*63  
$GPRMC,160234.000,A,3247.2156,N,07954.5686,W,0.00,,140914,,,D*6C                
$GPVTG,,T,,M,0.00,N,0.0,K,D*16                                                  
$GPGGA,160235.000,3247.2156,N,07954.5686,W,2,08,1.4,-6.2,M,-32.2,M,,0000*44     
$GPRMC,160235.000,A,3247.2156,N,07954.5686,W,0.00,,140914,,,D*6D                
$GPVTG,,T,,M,0.00,N,0.0,K,D*16                                                  
$GPGGA,160236.000,3247.2156,N,07954.5686,W,2,08,1.4,-6.4,M,-32.2,M,1.8,0000*66  
$GPRMC,160236.000,A,3247.2156,N,07954.5686,W,0.00,,140914,,,D*6E                
$GPVTG,,T,,M,0.00,N,0.0,K,D*16                                                  
$GPGGA,160237.000,3247.2156,N,07954.5686,W,2,08,1.4,-6.6,M,-32.2,M,,0000*42     
$GPGSA,A,3,11,28,20,01,30,07,17,32,,,,,2.7,1.4,2.3*39                           
$GPGSV,3,1,12,28,71,016,33,17,54,298,41,01,45,048,36,30,43,191,39*7C            
$GPGSV,3,2,12,20,26,114,31,11,25,048,39,06,21,210,18,04,18,212,*79              
$GPGSV,3,3,12,07,16,171,24,32,13,070,29,08,08,163,,03,02,074,*72                
$GPRMC,160237.000,A,3247.2156,N,07954.5686,W,0.00,,140914,,,D*6F                
$GPVTG,,T,,M,0.00,N,0.0,K,D*16                                                  
$GPGGA,160238.000,3247.2156,N,07954.5686,W,2,09,1.4,-6.5,M,-32.2,M,1.8,0000*68  
$GPRMC,160238.000,A,3247.2156,N,07954.5686,W,0.00,,140914,,,D*60                
$GPVTG,,T,,M,0.00,N,0.0,K,D*16                                                  
$GPGGA,160239.000,3247.2157,N,07954.5686,W,2,09,1.4,-6.5,M,-32.2,M,2.8,0000*6B  
$GPRMC,160239.000,A,3247.2157,N,07954.5686,W,0.00,,140914,,,D*60                
$GPVTG,,T,,M,0.00,N,0.0,K,D*16                                                  
$GPGGA,160240.000,3247.2157,N,07954.5687,W,2,09,1.4,-6.7,M,-32.2,M,3.8,0000*67  
$GPRMC,160240.000,A,3247.2157,N,07954.5687,W,0.00,,140914,,,D*6F                
$GPVTG,,T,,M,0.00,N,0.0,K,D*16                                                  
$GPGGA,160241.000,3247.2157,N,07954.5687,W,2,09,1.4,-6.6,M,-32.2,M,0.8,0000*64  
$GPRMC,160241.000,A,3247.2157,N,07954.5687,W,0.00,,140914,,,D*6E                
$GPVTG,,T,,M,0.00,N,0.0,K,D*16                                                  
$GPGGA,160242.000,3247.2158,N,07954.5687,W,2,09,1.4,-6.6,M,-32.2,M,0.8,0000*68  
$GPGSA,A,3,11,28,20,01,30,07,17,32,08,,,,2.5,1.4,2.1*31                         
$GPGSV,3,1,12,28,71,016,33,17,54,298,40,01,45,048,35,30,43,191,39*7E            
$GPGSV,3,2,12,20,26,114,30,11,25,048,39,06,21,210,25,04,18,212,*76              
$GPGSV,3,3,12,07,16,171,24,32,13,070,29,08,08,163,26,03,02,074,*76              
$GPRMC,160242.000,A,3247.2158,N,07954.5687,W,0.00,,140914,,,D*62                
$GPVTG,,T,,M,0.00,N,0.0,K,D*16                                                  
$GPGGA,160243.000,3247.2158,N,07954.5687,W,2,09,1.4,-6.6,M,-32.2,M,0.8,0000*69  
$GPRMC,160243.000,A,3247.2158,N,07954.5687,W,0.00,,140914,,,D*63                
$GPVTG,,T,,M,0.00,N,0.0,K,D*16                                                  
$GPGGA,160244.000,3247.2158,N,07954.5686,W,2,09,1.4,-6.8,M,-32.2,M,1.8,0000*60  
$GPRMC,160244.000,A,3247.2158,N,07954.5686,W,0.00,,140914,,,D*65                
$GPVTG,,T,,M,0.00,N,0.0,K,D*16                                                  
$GPGGA,160245.000,3247.2158,N,07954.5686,W,2,09,1.4,-6.8,M,-32.2,M,0.8,0000*60  
$GPRMC,160245.000,A,3247.2158,N,07954.5686,W,0.00,,140914,,,D*64                
$GPVTG,,T,,M,0.00,N,0.0,K,D*16                                                  
$GPGGA,160246.000,3247.2157,N,07954.5684,W,2,09,1.4,-6.0,M,-32.2,M,1.8,0000*67  
$GPRMC,160246.000,A,3247.2157,N,07954.5684,W,0.00,,140914,,,D*6A                
$GPVTG,,T,,M,0.00,N,0.0,K,D*16                                                  
$GPGGA,160247.000,3247.2157,N,07954.5684,W,2,09,1.4,-5.8,M,-32.2,M,0.8,0000*6C  
$GPGSA,A,3,11,28,20,01,30,07,17,32,08,,,,2.5,1.4,2.1*31                         
$GPGSV,3,1,12,28,71,017,33,17,54,299,40,01,45,048,34,30,42,191,39*7E            
$GPGSV,3,2,12,20,26,113,31,11,24,048,33,06,22,210,22,04,19,212,*7E              
$GPGSV,3,3,12,07,15,171,24,32,13,070,30,08,08,163,25,03,02,074,*7E              
$GPRMC,160247.000,A,3247.2157,N,07954.5684,W,0.00,,140914,,,D*6B                
$GPVTG,,T,,M,0.00,N,0.0,K,D*16                                                  
$GPGGA,160248.000,3247.2157,N,07954.5684,W,2,09,1.4,-5.8,M,-32.2,M,0.8,0000*63  
$GPRMC,160248.000,A,3247.2157,N,07954.5684,W,0.00,,140914,,,D*64                
$GPVTG,,T,,M,0.00,N,0.0,K,D*16                                                  
$GPGGA,160249.000,3247.2157,N,07954.5684,W,2,09,1.4,-5.9,M,-32.2,M,0.8,0000*63  
$GPRMC,160249.000,A,3247.2157,N,07954.5684,W,0.00,,140914,,,D*65                
$GPVTG,,T,,M,0.00,N,0.0,K,D*16                                                  
$GPGGA,160250.000,3247.2157,N,07954.5684,W,2,09,1.4,-5.9,M,-32.2,M,1.8,0000*6A  
$GPRMC,160250.000,A,3247.2157,N,07954.5684,W,0.00,,140914,,,D*6D                
$GPVTG,,T,,M,0.00,N,0.0,K,D*16                                                  
$GPGGA,160251.000,3247.2157,N,07954.5685,W,2,09,1.4,-5.9,M,-32.2,M,2.8,0000*69  
$GPRMC,160251.000,A,3247.2157,N,07954.5685,W,0.00,,140914,,,D*6D                
$GPVTG,,T,,M,0.00,N,0.0,K,D*16                                                  
$GPGGA,160252.000,3247.2157,N,07954.5685,W,2,09,1.4,-5.9,M,-32.2,M,,0000*4E     
$GPGSA,A,3,11,28,20,01,30,07,17,32,08,,,,2.5,1.4,2.1*31                         
$GPGSV,3,1,12,28,71,017,33,17,54,299,40,01,45,048,34,30,42,191,39*7E            
$GPGSV,3,2,12,20,26,113,32,11,24,048,38,06,22,210,22,04,19,212,*76              
$GPGSV,3,3,12,07,15,171,25,32,13,070,31,08,08,163,25,03,02,074,*7E              
$GPRMC,160252.000,A,3247.2157,N,07954.5685,W,0.00,,140914,,,D*6E                
$GPVTG,,T,,M,0.00,N,0.0,K,D*16                                                  
$GPGGA,160253.000,3247.2157,N,07954.5685,W,2,09,1.4,-5.9,M,-32.2,M,,0000*4F     
$GPRMC,160253.000,A,3247.2157,N,07954.5685,W,0.00,,140914,,,D*6F                
$GPVTG,,T,,M,0.00,N,0.0,K,D*16                                                  
$GPGGA,160254.000,3247.2157,N,07954.5685,W,2,09,1.4,-6.0,M,-32.2,M,,0000*42     
$GPRMC,160254.000,A,3247.2157,N,07954.5685,W,0.00,,140914,,,D*68                
$GPVTG,,T,,M,0.00,N,0.0,K,D*16                                                  
$GPGGA,160255.000,3247.2157,N,07954.5685,W,2,09,1.4,-6.0,M,-32.2,M,,0000*43     
$GPRMC,160255.000,A,3247.2157,N,07954.5685,W,0.00,,140914,,,D*69                
$GPVTG,,T,,M,0.00,N,0.0,K,D*16                                                  
$GPGGA,160256.000,3247.2157,N,07954.5685,W,2,09,1.4,-5.9,M,-32.2,M,1.8,0000*6D  
$GPRMC,160256.000,A,3247.2157,N,07954.5685,W,0.00,,140914,,,D*6A                
$GPVTG,,T,,M,0.00,N,0.0,K,D*16                                                  
$GPGGA,160257.000,3247.2157,N,07954.5684,W,2,08,1.4,-5.9,M,-32.2,M,,0000*4B     
$GPGSA,A,3,11,28,20,01,30,17,32,08,,,,,2.6,1.4,2.2*36                           
$GPGSV,3,1,12,28,71,017,33,17,54,299,40,01,45,048,35,30,42,191,38*7E            
$GPGSV,3,2,12,20,26,113,33,11,24,048,39,06,22,210,24,04,19,212,*70              
$GPGSV,3,3,12,07,15,171,17,32,13,070,31,08,08,163,25,03,02,074,*7F              
$GPRMC,160257.000,A,3247.2157,N,07954.5684,W,0.00,,140914,,,D*6A                
$GPVTG,,T,,M,0.00,N,0.0,K,D*16                                                  
$GPGGA,160258.000,3247.2157,N,07954.5684,W,2,08,1.4,-5.8,M,-32.2,M,,0000*45     
$GPRMC,160258.000,A,3247.2157,N,07954.5684,W,0.00,,140914,,,D*65                
$GPVTG,,T,,M,0.00,N,0.0,K,D*16                                                  
$GPGGA,160259.000,3247.2157,N,07954.5684,W,2,08,1.4,-5.9,M,-32.2,M,,0000*45     
$GPRMC,160259.000,A,3247.2157,N,07954.5684,W,0.00,,140914,,,D*64                
$GPVTG,,T,,M,0.00,N,0.0,K,D*16                                                  
$GPGGA,160300.000,3247.2157,N,07954.5684,W,2,08,1.4,-5.9,M,-32.2,M,,0000*48     
$GPRMC,160300.000,A,3247.2157,N,07954.5684,W,0.00,,140914,,,D*69                
$GPVTG,,T,,M,0.00,N,0.0,K,D*16                                                  
$GPGGA,160301.000,3247.2157,N,07954.5684,W,2,08,1.4,-5.9,M,-32.2,M,,0000*49     
$GPRMC,160301.000,A,3247.2157,N,07954.5684,W,0.00,,140914,,,D*68                
$GPVTG,,T,,M,0.00,N,0.0,K,D*16                                                  
$GPGGA,160302.000,3247.2157,N,07954.5684,W,2,09,1.4,-5.9,M,-32.2,M,1.8,0000*6C  
$GPGSA,A,3,11,28,20,01,30,07,17,32,08,,,,2.5,1.4,2.1*31                         
$GPGSV,3,1,12,28,71,017,33,17,54,299,40,01,45,048,35,30,42,191,39*7F            
$GPGSV,3,2,12,20,26,113,33,11,24,048,39,06,22,210,24,04,19,212,*70              
$GPGSV,3,3,12,07,15,171,23,32,13,070,32,08,08,163,26,03,02,074,*78              
$GPRMC,160302.000,A,3247.2157,N,07954.5684,W,0.00,,140914,,,D*6B                
$GPVTG,,T,,M,0.00,N,0.0,K,D*16                                                  
$GPGGA,160303.000,3247.2157,N,07954.5684,W,2,09,1.4,-5.9,M,-32.2,M,2.8,0000*6E  
$GPRMC,160303.000,A,3247.2157,N,07954.5684,W,0.00,,140914,,,D*6A                
$GPVTG,,T,,M,0.00,N,0.0,K,D*16                                                  
$GPGGA,160304.000,3247.2157,N,07954.5685,W,2,09,1.4,-6.0,M,-32.2,M,,0000*46     
$GPRMC,160304.000,A,3247.2157,N,07954.5685,W,0.00,,140914,,,D*6C                
$GPVTG,,T,,M,0.00,N,0.0,K,D*16                                                  
$GPGGA,160305.000,3247.2157,N,07954.5685,W,2,09,1.4,-6.0,M,-32.2,M,,0000*47     
$GPRMC,160305.000,A,3247.2157,N,07954.5685,W,0.00,,140914,,,D*6D                
$GPVTG,,T,,M,0.00,N,0.0,K,D*16                                                  
$GPGGA,160306.000,3247.2157,N,07954.5685,W,2,09,1.4,-6.2,M,-32.2,M,,0000*46     
$GPRMC,160306.000,A,3247.2157,N,07954.5685,W,0.00,,140914,,,D*6E                
$GPVTG,,T,,M,0.00,N,0.0,K,D*16                                                  
$GPGGA,160307.000,3247.2157,N,07954.5685,W,2,09,1.4,-6.3,M,-32.2,M,1.8,0000*61  
$GPGSA,A,3,11,28,20,01,30,07,17,32,08,,,,2.5,1.4,2.1*31                         
$GPGSV,3,1,12,28,71,017,33,17,54,299,40,01,45,048,36,30,42,191,39*7C            
$GPGSV,3,2,12,20,26,113,32,11,24,048,38,06,22,210,16,04,19,212,*71              
$GPGSV,3,3,12,07,15,171,25,32,13,070,32,08,08,163,25,03,02,074,*7D              
$GPRMC,160307.000,A,3247.2157,N,07954.5685,W,0.00,,140914,,,D*6F                
$GPVTG,,T,,M,0.00,N,0.0,K,D*16                                                  
$GPGGA,160308.000,3247.2157,N,07954.5685,W,2,09,1.4,-6.5,M,-32.2,M,2.8,0000*6B  
