\c:1551625234*5D\$GPXTE,A,A,,R,N,A*03
\c:1551625234*5D\$GPZDA,180704,03,03,2019,00,*48
\c:1551625235*5C\$IIDBT,012.10,f,003.69,M,001.99,F*2E
\c:1551625235*5C\$GPGLL,3247.221,N,07954.564,W,180704,A,A*54
\c:1551625235*5C\$IIHDM,191,M*35
\c:1551625235*5C\$IIMWD,140.19,T,152.18,M,06.78,N,03.49,M*41
\c:1551625235*5C\$IIMWV,320,R,06.78,N,A*2B
\c:1551625235*5C\$IIVDR,359.98,T,011.98,M,0.00,N*06
\c:1551625235*5C\$IIVHW,179,T,191,M,00.00,N,00.00,K*53
\c:1551625236*5F\$IIVWR,041,L,06.74,N,03.47,M,,*2C
\c:1551625236*5F\$IIVPW,,N,,*1F
\c:1551625236*5F\$IIVTG,315.72,T,327.72,M,0.00,N,,,A*60
\c:1551625236*5F\$IIMWV,329,T,06.66,N,A*2B
\c:1551625236*5F\$IIVWT,032,L,06.66,N,03.43,M,,*29
\c:1551625236*5F\$IIHDM,191,M*35
\c:1551625236*5F\$IIMWV,325,R,06.68,N,A*2F
\c:1551625236*5F\$GPXTE,A,A,,R,N,A*03
\c:1551625237*5E\$GPZDA,180706,03,03,2019,00,*4A
\c:1551625237*5E\$IIDBT,012.04,f,003.67,M,001.98,F*24
\c:1551625237*5E\$GPGLL,3247.221,N,07954.564,W,180706,A,A*56
\c:1551625237*5E\$IIHDM,190,M*34
\c:1551625237*5E\$IIMWD,145.70,T,157.70,M,06.53,N,03.36,M*41
\c:1551625237*5E\$IIMWV,322,T,06.51,N,A*24
\c:1551625237*5E\$IIVDR,359.98,T,011.98,M,0.00,N*06
\c:1551625237*5E\$IIVHW,178,T,190,M,00.00,N,00.00,K*53
\c:1551625238*51\$IIVWR,040,L,06.45,N,03.32,M,,*2D
\c:1551625238*51\$IIVPW,,N,,*1F
\c:1551625238*51\$IIVTG,315.72,T,327.72,M,0.00,N,,,A*60
\c:1551625238*51\$IIMWV,328,R,06.41,N,A*29
\c:1551625238*51\$IIVWT,032,L,06.39,N,03.29,M,,*2F
\c:1551625238*51\$IIHDM,191,M*35
\c:1551625238*51\$IIMWV,324,T,06.39,N,A*2C
\c:1551625238*51\$GPXTE,A,A,,R,N,A*03
\c:1551625239*50\$GPZDA,180708,03,03,2019,00,*44
\c:1551625239*50\$IIDBT,012.07,f,003.68,M,001.98,F*28
\c:1551625239*50\$GPGLL,3247.221,N,07954.564,W,180708,A,A*58
\c:1551625239*50\$IIHDM,191,M*35
\c:1551625239*50\$IIMWD,136.86,T,148.85,M,06.68,N,03.44,M*45
\c:1551625239*50\$IIMWV,320,R,06.93,N,A*2E
\c:1551625239*50\$IIVDR,359.98,T,011.98,M,0.00,N*06
\c:1551625239*50\$IIVHW,179,T,191,M,00.00,N,00.00,K*53
\c:1551625240*5E\$IIVWR,042,L,07.07,N,03.64,M,,*2B
\c:1551625240*5E\$IIVPW,,N,,*1F
\c:1551625240*5E\$IIVTG,315.72,T,327.72,M,0.00,N,,,A*60
\c:1551625240*5E\$IIMWV,317,T,07.15,N,A*23
\c:1551625240*5E\$IIVWT,043,L,07.15,N,03.68,M,,*23
\c:1551625240*5E\$IIHDM,190,M*34
\c:1551625240*5E\$IIMWV,317,R,07.11,N,A*21
\c:1551625240*5E\$GPXTE,A,A,,R,N,A*03
\c:1551625241*5F\$GPZDA,180710,03,03,2019,00,*4D
\c:1551625241*5F\$IIDBT,012.13,f,003.70,M,001.99,F*25
\c:1551625241*5F\$GPGLL,3247.221,N,07954.564,W,180710,A,A*51
\c:1551625241*5F\$IIHDM,190,M*34
\c:1551625241*5F\$IIMWD,135.09,T,147.09,M,06.86,N,03.53,M*4C
\c:1551625241*5F\$IIMWV,317,T,06.86,N,A*28
\c:1551625241*5F\$IIVDR,359.98,T,011.98,M,0.00,N*06
\c:1551625242*5C\$IIVHW,178,T,190,M,00.00,N,00.00,K*53
\c:1551625242*5C\$IIVWR,032,L,06.80,N,03.50,M,,*25
\c:1551625242*5C\$IIVPW,,N,,*1F
\c:1551625242*5C\$IIVTG,315.72,T,327.72,M,0.00,N,,,A*60
\c:1551625242*5C\$IIMWV,320,R,06.68,N,A*2A
\c:1551625242*5C\$IIVWT,040,L,06.68,N,03.44,M,,*25
\c:1551625242*5C\$IIHDM,190,M*34
\c:1551625242*5C\$IIMWV,320,T,06.68,N,A*2C
\c:1551625243*5D\$GPXTE,A,A,,R,N,A*03
\c:1551625243*5D\$GPZDA,180712,03,03,2019,00,*4F
\c:1551625243*5D\$IIDBT,012.10,f,003.69,M,001.99,F*2E
\c:1551625243*5D\$GPGLL,3247.221,N,07954.564,W,180712,A,A*53
\c:1551625243*5D\$IIHDM,190,M*34
\c:1551625243*5D\$IIMWD,137.55,T,149.55,M,06.88,N,03.54,M*49
\c:1551625243*5D\$IIMWV,320,R,06.90,N,A*2D
\c:1551625243*5D\$IIVDR,359.98,T,011.98,M,0.00,N*06
\c:1551625244*5A\$IIVHW,178,T,190,M,00.00,N,00.00,K*53
\c:1551625244*5A\$IIVWR,043,L,06.93,N,03.57,M,,*26
\c:1551625244*5A\$IIVPW,,N,,*1F
\c:1551625244*5A\$IIVTG,315.72,T,327.72,M,0.00,N,,,A*60
\c:1551625244*5A\$IIMWV,312,T,06.88,N,A*23
\c:1551625244*5A\$IIVWT,048,L,06.88,N,03.54,M,,*22
\c:1551625244*5A\$IIHDM,190,M*34
\c:1551625244*5A\$IIMWV,308,R,06.80,N,A*26
\c:1551625245*5B\$GPXTE,A,A,,R,N,A*03
\c:1551625245*5B\$GPZDA,180714,03,03,2019,00,*49
\c:1551625245*5B\$IIDBT,012.00,f,003.66,M,001.97,F*2E
\c:1551625245*5B\$GPGLL,3247.221,N,07954.564,W,180714,A,A*55
\c:1551625245*5B\$IIHDM,190,M*34
\c:1551625245*5B\$IIMWD,138.24,T,150.24,M,06.88,N,03.54,M*4E
\c:1551625245*5B\$IIMWV,320,T,06.88,N,A*22
\c:1551625245*5B\$IIVDR,359.98,T,011.98,M,0.00,N*06
\c:1551625246*58\$IIVHW,178,T,190,M,00.00,N,00.00,K*53
\c:1551625246*58\$IIVWR,048,L,07.11,N,03.66,M,,*24
\c:1551625246*58\$IIVPW,,N,,*1F
\c:1551625246*58\$IIVTG,315.72,T,327.72,M,0.00,N,,,A*60
\c:1551625246*58\$IIMWV,314,R,07.34,N,A*25
\c:1551625246*58\$IIVWT,047,L,07.44,N,03.83,M,,*26
\c:1551625246*58\$IIHDM,190,M*34
\c:1551625246*58\$IIMWV,313,T,07.42,N,A*25
\c:1551625247*59\$GPXTE,A,A,,R,N,A*03
\c:1551625247*59\$GPZDA,180716,03,03,2019,00,*4B
\c:1551625247*59\$IIDBT,012.04,f,003.67,M,001.98,F*24
\c:1551625247*59\$GPGLL,3247.221,N,07954.564,W,180716,A,A*57
\c:1551625247*59\$IIHDM,190,M*34
\c:1551625247*59\$IIMWD,130.07,T,142.06,M,07.32,N,03.77,M*45
\c:1551625247*59\$IIMWV,312,R,07.34,N,A*23
\c:1551625248*56\$IIVDR,359.98,T,011.98,M,0.00,N*06
\c:1551625248*56\$IIVHW,178,T,190,M,00.00,N,00.00,K*53
\c:1551625248*56\$IIVWR,048,L,06.93,N,03.57,M,,*2D
\c:1551625248*56\$IIVPW,,N,,*1F
\c:1551625248*56\$IIVTG,315.72,T,327.72,M,0.02,N,,,A*62
\c:1551625248*56\$IIMWV,316,T,06.74,N,A*24
\c:1551625248*56\$IIVWT,042,L,06.58,N,03.39,M,,*2E
\c:1551625248*56\$IIHDM,190,M*34
\c:1551625249*57\$IIMWV,319,R,06.45,N,A*2F
\c:1551625249*57\$GPXTE,A,A,,R,N,A*03
\c:1551625249*57\$GPZDA,180718,03,03,2019,00,*45
\c:1551625249*57\$IIDBT,012.10,f,003.69,M,001.99,F*2E
\c:1551625249*57\$GPGLL,3247.221,N,07954.564,W,180718,A,A*59
\c:1551625249*57\$IIHDM,190,M*34
\c:1551625249*57\$IIMWD,139.69,T,151.68,M,05.87,N,03.02,M*40
\c:1551625249*57\$IIMWV,322,T,05.87,N,A*2C
\c:1551625250*5F\$IIVDR,315.72,T,327.72,M,0.02,N*0A
\c:1551625250*5F\$IIVHW,178,T,190,M,00.00,N,00.00,K*53
\c:1551625250*5F\$IIVWR,041,L,05.57,N,02.87,M,,*23
\c:1551625250*5F\$IIVPW,,N,,*1F
\c:1551625250*5F\$IIVTG,315.72,T,327.72,M,0.02,N,,,A*62
\c:1551625250*5F\$IIMWV,319,R,05.57,N,A*2F
\c:1551625250*5F\$IIVWT,043,L,05.50,N,02.83,M,,*24
\c:1551625250*5F\$IIHDM,190,M*34
\c:1551625251*5E\$IIMWV,317,T,05.50,N,A*20
\c:1551625251*5E\$GPXTE,A,A,,R,N,A*03
\c:1551625251*5E\$GPZDA,180720,03,03,2019,00,*4E
\c:1551625251*5E\$IIDBT,012.04,f,003.67,M,001.98,F*24
\c:1551625251*5E\$GPGLL,3247.221,N,07954.564,W,180720,A,A*52
\c:1551625251*5E\$IIHDM,189,M*3C
\c:1551625251*5E\$IIMWD,133.17,T,145.17,M,05.32,N,02.74,M*40
\c:1551625251*5E\$IIMWV,316,R,05.34,N,A*25
\c:1551625252*5D\$IIVDR,315.72,T,327.72,M,0.02,N*0A
\c:1551625252*5D\$IIVHW,177,T,189,M,00.00,N,00.00,K*54
\c:1551625252*5D\$IIVWR,039,L,05.32,N,02.74,M,,*23
\c:1551625252*5D\$IIVPW,,N,,*1F
\c:1551625252*5D\$IIVTG,315.72,T,327.72,M,0.00,N,,,A*60
\c:1551625252*5D\$IIMWV,319,T,05.36,N,A*2E
\c:1551625252*5D\$IIVWT,036,L,05.46,N,02.81,M,,*23
\c:1551625252*5D\$IIHDM,190,M*34
\c:1551625253*5C\$IIMWV,324,R,05.52,N,A*24
\c:1551625253*5C\$GPXTE,A,A,,R,N,A*03
\c:1551625253*5C\$GPZDA,180722,03,03,2019,00,*4C
\c:1551625253*5C\$IIDBT,012.04,f,003.67,M,001.98,F*24
\c:1551625253*5C\$GPGLL,3247.221,N,07954.564,W,180722,A,A*50
\c:1551625253*5C\$IIHDM,190,M*34
\c:1551625253*5C\$IIMWD,135.24,T,147.24,M,05.50,N,02.83,M*48
\c:1551625254*5B\$IIMWV,318,T,05.50,N,A*2F
\c:1551625254*5B\$IIVDR,359.98,T,011.98,M,0.00,N*06
\c:1551625254*5B\$IIVHW,178,T,190,M,00.00,N,00.00,K*53
\c:1551625254*5B\$IIVWR,040,L,05.48,N,02.82,M,,*29
\c:1551625254*5B\$IIVPW,,N,,*1F
\c:1551625254*5B\$IIVTG,315.72,T,327.72,M,0.00,N,,,A*60
\c:1551625254*5B\$IIMWV,320,R,05.48,N,A*2B
\c:1551625254*5B\$IIVWT,041,L,05.48,N,02.82,M,,*2E
\c:1551625255*5A\$IIHDM,190,M*34
\c:1551625255*5A\$IIMWV,319,T,05.44,N,A*2B
\c:1551625255*5A\$GPXTE,A,A,,R,N,A*03
\c:1551625255*5A\$GPZDA,180724,03,03,2019,00,*4A
\c:1551625255*5A\$IIDBT,012.04,f,003.67,M,001.98,F*24
\c:1551625255*5A\$GPGLL,3247.221,N,07954.564,W,180724,A,A*56
\c:1551625255*5A\$IIHDM,189,M*3C
\c:1551625255*5A\$IIMWD,137.87,T,149.87,M,05.22,N,02.69,M*45
\c:1551625256*59\$IIMWV,321,R,05.24,N,A*20
\c:1551625256*59\$IIVDR,359.98,T,011.98,M,0.00,N*06
\c:1551625256*59\$IIVHW,178,T,190,M,00.00,N,00.00,K*53
\c:1551625256*59\$IIVWR,026,L,05.24,N,02.70,M,,*2E
\c:1551625256*59\$IIVPW,,N,,*1F
\c:1551625256*59\$IIVTG,315.72,T,327.72,M,0.00,N,,,A*60
\c:1551625256*59\$IIMWV,334,T,05.22,N,A*24
\c:1551625256*59\$IIVWT,037,L,05.26,N,02.71,M,,*2B
\c:1551625257*58\$IIHDM,190,M*34
\c:1551625257*58\$IIMWV,323,R,05.28,N,A*2E
\c:1551625257*58\$GPXTE,A,A,,R,N,A*03
\c:1551625257*58\$GPZDA,180726,03,03,2019,00,*48
\c:1551625257*58\$IIDBT,012.04,f,003.67,M,001.98,F*24
\c:1551625257*58\$GPGLL,3247.221,N,07954.564,W,180726,A,A*54
\c:1551625257*58\$IIHDM,190,M*34
\c:1551625258*57\$IIMWD,140.03,T,152.02,M,05.44,N,02.80,M*49
\c:1551625258*57\$IIMWV,322,T,05.44,N,A*23
\c:1551625258*57\$IIVDR,359.98,T,011.98,M,0.00,N*06
\c:1551625258*57\$IIVHW,178,T,190,M,00.00,N,00.00,K*53
\c:1551625258*57\$IIVWR,037,L,05.61,N,02.89,M,,*29
\c:1551625258*57\$IIVPW,,N,,*1F
\c:1551625258*57\$IIVTG,315.72,T,327.72,M,0.00,N,,,A*60
\c:1551625258*57\$IIMWV,330,R,05.67,N,A*27
\c:1551625259*56\$IIVWT,030,L,05.63,N,02.90,M,,*22
\c:1551625259*56\$IIHDM,189,M*3C
\c:1551625259*56\$IIMWV,328,T,05.53,N,A*2F
\c:1551625259*56\$GPXTE,A,A,,R,N,A*03
\c:1551625259*56\$GPZDA,180728,03,03,2019,00,*46
\c:1551625259*56\$IIDBT,012.04,f,003.67,M,001.98,F*24
\c:1551625259*56\$GPGLL,3247.221,N,07954.564,W,180728,A,A*5A
\c:1551625259*56\$IIHDM,189,M*3C
\c:1551625260*5C\$IIMWD,129.60,T,141.60,M,05.46,N,02.81,M*46
\c:1551625260*5C\$IIMWV,313,R,05.48,N,A*2B
\c:1551625260*5C\$IIVDR,359.98,T,011.98,M,0.00,N*06
\c:1551625260*5C\$IIVHW,177,T,189,M,00.00,N,00.00,K*54
\c:1551625260*5C\$IIVWR,042,L,05.46,N,02.81,M,,*26
\c:1551625260*5C\$IIVPW,,N,,*1F
\c:1551625260*5C\$IIVTG,315.72,T,327.72,M,0.00,N,,,A*60
\c:1551625260*5C\$IIMWV,318,T,05.44,N,A*2A
\c:1551625261*5D\$IIVWT,042,L,05.44,N,02.80,M,,*23
\c:1551625261*5D\$IIHDM,189,M*3C
\c:1551625261*5D\$IIMWV,317,R,05.52,N,A*24
\c:1551625261*5D\$GPXTE,A,A,,R,N,A*03
\c:1551625261*5D\$GPZDA,180731,03,03,2019,00,*4E
\c:1551625261*5D\$IIDBT,012.13,f,003.70,M,001.99,F*25
\c:1551625261*5D\$GPGLL,3247.221,N,07954.564,W,180731,A,A*52
\c:1551625261*5D\$IIHDM,189,M*3C
\c:1551625262*5E\$IIMWD,137.12,T,149.12,M,05.75,N,02.96,M*47
\c:1551625262*5E\$IIMWV,320,T,05.79,N,A*2F
\c:1551625262*5E\$IIVDR,359.98,T,011.98,M,0.00,N*06
\c:1551625262*5E\$IIVHW,177,T,189,M,00.00,N,00.00,K*54
\c:1551625262*5E\$IIVWR,036,L,05.94,N,03.06,M,,*24
\c:1551625262*5E\$IIVPW,,N,,*1F
\c:1551625262*5E\$IIVTG,315.72,T,327.72,M,0.00,N,,,A*60
\c:1551625263*5F\$IIMWV,325,R,05.98,N,A*23
\c:1551625263*5F\$IIVWT,035,L,05.96,N,03.07,M,,*22
\c:1551625263*5F\$IIHDM,189,M*3C
\c:1551625263*5F\$IIMWV,323,T,06.02,N,A*23
\c:1551625263*5F\$GPXTE,A,A,,R,N,A*03
\c:1551625263*5F\$GPZDA,180733,03,03,2019,00,*4C
\c:1551625263*5F\$IIDBT,012.07,f,003.68,M,001.98,F*28
\c:1551625263*5F\$GPGLL,3247.221,N,07954.564,W,180733,A,A*50
\c:1551625264*58\$IIHDM,189,M*3C
\c:1551625264*58\$IIMWD,134.04,T,146.04,M,06.10,N,03.14,M*40
\c:1551625264*58\$IIMWV,318,R,06.14,N,A*2A
\c:1551625264*58\$IIVDR,359.98,T,011.98,M,0.00,N*06
\c:1551625264*58\$IIVHW,177,T,189,M,00.00,N,00.00,K*54
\c:1551625264*58\$IIVWR,040,L,06.23,N,03.21,M,,*2F
\c:1551625264*58\$IIVPW,,N,,*1F
\c:1551625264*58\$IIVTG,315.72,T,327.72,M,0.00,N,,,A*60
\c:1551625265*59\$IIMWV,324,T,06.62,N,A*22
\c:1551625265*59\$IIVWT,036,L,06.62,N,03.41,M,,*2B
\c:1551625265*59\$IIHDM,189,M*3C
\c:1551625265*59\$IIMWV,329,R,06.70,N,A*2A
\c:1551625265*59\$GPXTE,A,A,,R,N,A*03
\c:1551625265*59\$GPZDA,180735,03,03,2019,00,*4A
\c:1551625265*59\$IIDBT,012.07,f,003.68,M,001.98,F*28
\c:1551625265*59\$GPGLL,3247.221,N,07954.564,W,180735,A,A*56
\c:1551625266*5A\$IIHDM,189,M*3C
\c:1551625266*5A\$IIMWD,133.42,T,145.42,M,06.78,N,03.49,M*42
\c:1551625266*5A\$IIMWV,323,T,06.76,N,A*20
\c:1551625266*5A\$IIVDR,359.98,T,011.98,M,0.00,N*06
\c:1551625266*5A\$IIVHW,177,T,189,M,00.00,N,00.00,K*54
\c:1551625266*5A\$IIVWR,035,L,06.74,N,03.47,M,,*2F
\c:1551625266*5A\$IIVPW,,N,,*1F
\c:1551625266*5A\$IIVTG,315.72,T,327.72,M,0.00,N,,,A*60
\c:1551625267*5B\$IIMWV,324,R,06.80,N,A*28
\c:1551625267*5B\$IIVWT,037,L,06.78,N,03.49,M,,*29
\c:1551625267*5B\$IIHDM,189,M*3C
\c:1551625267*5B\$IIMWV,330,T,06.86,N,A*2D
\c:1551625267*5B\$GPXTE,A,A,,R,N,A*03
\c:1551625267*5B\$GPZDA,180737,03,03,2019,00,*48
\c:1551625267*5B\$IIDBT,012.10,f,003.69,M,001.99,F*2E
\c:1551625268*54\$GPGLL,3247.221,N,07954.564,W,180737,A,A*54
\c:1551625268*54\$IIHDM,189,M*3C
\c:1551625268*54\$IIMWD,139.55,T,151.55,M,06.78,N,03.49,M*4D
\c:1551625268*54\$IIMWV,329,R,06.88,N,A*2D
\c:1551625268*54\$IIVDR,359.98,T,011.98,M,0.00,N*06
\c:1551625268*54\$IIVHW,177,T,189,M,00.00,N,00.00,K*54
\c:1551625268*54\$IIVWR,029,L,06.84,N,03.52,M,,*29
\c:1551625268*54\$IIVPW,,N,,*1F
\c:1551625269*55\$IIVTG,315.72,T,327.72,M,0.00,N,,,A*60
\c:1551625269*55\$IIMWV,317,T,06.86,N,A*28
\c:1551625269*55\$IIVWT,043,L,06.86,N,03.53,M,,*20
\c:1551625269*55\$IIHDM,189,M*3C
\c:1551625269*55\$IIMWV,323,R,07.03,N,A*25
\c:1551625269*55\$GPXTE,A,A,,R,N,A*03
\c:1551625269*55\$GPZDA,180739,03,03,2019,00,*46
\c:1551625269*55\$IIDBT,012.10,f,003.69,M,001.99,F*2E
\c:1551625270*5D\$GPGLL,3247.221,N,07954.564,W,180739,A,A*5A
\c:1551625270*5D\$IIHDM,189,M*3C
\c:1551625270*5D\$IIMWD,146.03,T,158.03,M,07.61,N,03.92,M*43
\c:1551625270*5D\$IIMWV,330,T,07.60,N,A*24
\c:1551625270*5D\$IIVDR,359.98,T,011.98,M,0.00,N*06
\c:1551625270*5D\$IIVHW,177,T,189,M,00.00,N,00.00,K*54
\c:1551625270*5D\$IIVWR,032,L,07.69,N,03.96,M,,*29
\c:1551625270*5D\$IIVPW,,N,,*1F
\c:1551625271*5C\$IIVTG,315.72,T,327.72,M,0.00,N,,,A*60
\c:1551625271*5C\$IIMWV,336,R,07.60,N,A*24
\c:1551625271*5C\$IIVWT,024,L,07.56,N,03.89,M,,*2A
\c:1551625271*5C\$IIHDM,189,M*3C
\c:1551625271*5C\$IIMWV,331,T,07.65,N,A*20
\c:1551625271*5C\$GPXTE,A,A,,R,N,A*03
\c:1551625271*5C\$GPZDA,180741,03,03,2019,00,*49
\c:1551625271*5C\$IIDBT,012.04,f,003.67,M,001.98,F*24
\c:1551625272*5F\$GPGLL,3247.221,N,07954.564,W,180741,A,A*55
\c:1551625272*5F\$IIHDM,189,M*3C
\c:1551625272*5F\$IIMWD,153.85,T,165.84,M,07.61,N,03.92,M*48
\c:1551625272*5F\$IIMWV,342,R,07.21,N,A*22
\c:1551625272*5F\$IIVDR,359.98,T,011.98,M,0.00,N*06
\c:1551625272*5F\$IIVHW,177,T,189,M,00.00,N,00.00,K*54
\c:1551625272*5F\$IIVWR,034,L,06.88,N,03.54,M,,*2F
\c:1551625272*5F\$IIVPW,,N,,*1F
\c:1551625273*5E\$IIVTG,315.72,T,327.72,M,0.00,N,,,A*60
\c:1551625273*5E\$IIMWV,304,T,06.57,N,A*26
\c:1551625273*5E\$IIVWT,056,L,06.57,N,03.38,M,,*25
\c:1551625273*5E\$IIHDM,189,M*3C
\c:1551625273*5E\$IIMWV,311,R,06.60,N,A*20
\c:1551625273*5E\$GPXTE,A,A,,R,N,A*03
\c:1551625273*5E\$GPZDA,180743,03,03,2019,00,*4B
\c:1551625274*59\$IIDBT,012.04,f,003.67,M,001.98,F*24
\c:1551625274*59\$GPGLL,3247.221,N,07954.564,W,180743,A,A*57
\c:1551625274*59\$IIHDM,189,M*3C
\c:1551625274*59\$IIMWD,126.87,T,138.86,M,06.47,N,03.33,M*4C
\c:1551625274*59\$IIMWV,311,T,06.45,N,A*21
\c:1551625274*59\$IIVDR,359.98,T,011.98,M,0.00,N*06
\c:1551625274*59\$IIVHW,177,T,189,M,00.00,N,00.00,K*54
\c:1551625274*59\$IIVWR,046,L,06.68,N,03.44,M,,*25
\c:1551625274*59\$IIVPW,,N,,*1F
\c:1551625275*58\$IIVTG,315.72,T,327.72,M,0.00,N,,,A*60
\c:1551625275*58\$IIMWV,317,R,07.03,N,A*22
\c:1551625275*58\$IIVWT,043,L,07.01,N,03.61,M,,*2F
\c:1551625275*58\$IIHDM,189,M*3C
\c:1551625275*58\$IIMWV,316,T,07.26,N,A*22
\c:1551625275*58\$GPXTE,A,A,,R,N,A*03
\c:1551625275*58\$GPZDA,180745,03,03,2019,00,*4D
\c:1551625276*5B\$IIDBT,012.13,f,003.70,M,001.99,F*25
\c:1551625276*5B\$GPGLL,3247.221,N,07954.564,W,180746,A,A*52
\c:1551625276*5B\$IIHDM,189,M*3C
\c:1551625276*5B\$IIMWD,136.01,T,148.01,M,07.48,N,03.85,M*48
\c:1551625276*5B\$IIMWV,312,R,07.54,N,A*25
\c:1551625276*5B\$IIVDR,359.98,T,011.98,M,0.00,N*06
\c:1551625276*5B\$IIVHW,177,T,189,M,00.00,N,00.00,K*54
\c:1551625276*5B\$IIVWR,047,L,07.46,N,03.84,M,,*25
\c:1551625277*5A\$IIVPW,,N,,*1F
\c:1551625277*5A\$IIVTG,315.72,T,327.72,M,0.00,N,,,A*60
\c:1551625277*5A\$IIMWV,314,T,07.65,N,A*27
\c:1551625277*5A\$IIVWT,046,L,07.65,N,03.94,M,,*22
\c:1551625277*5A\$IIHDM,189,M*3C
\c:1551625277*5A\$IIMWV,316,R,07.63,N,A*25
\c:1551625277*5A\$GPXTE,A,A,,R,N,A*03
\c:1551625277*5A\$GPZDA,180747,03,03,2019,00,*4F
\c:1551625278*55\$IIDBT,012.10,f,003.69,M,001.99,F*2E
\c:1551625278*55\$GPGLL,3247.221,N,07954.564,W,180748,A,A*5C
\c:1551625278*55\$IIHDM,189,M*3C
\c:1551625278*55\$IIMWD,136.06,T,148.06,M,07.52,N,03.87,M*41
\c:1551625278*55\$IIMWV,319,T,07.52,N,A*2E
\c:1551625278*55\$IIVDR,359.98,T,011.98,M,0.00,N*06
\c:1551625278*55\$IIVHW,177,T,189,M,00.00,N,00.00,K*54
\c:1551625279*54\$IIVWR,041,L,07.60,N,03.91,M,,*23
\c:1551625279*54\$IIVPW,,N,,*1F
\c:1551625279*54\$IIVTG,315.72,T,327.72,M,0.00,N,,,A*60
\c:1551625279*54\$IIMWV,319,R,07.69,N,A*20
\c:1551625279*54\$IIVWT,041,L,07.69,N,03.96,M,,*2B
\c:1551625279*54\$IIHDM,189,M*3C
\c:1551625279*54\$IIMWV,319,T,07.71,N,A*2F
\c:1551625279*54\$GPXTE,A,A,,R,N,A*03
\c:1551625280*52\$GPZDA,180749,03,03,2019,00,*41
\c:1551625280*52\$IIDBT,012.10,f,003.69,M,001.99,F*2E
\c:1551625280*52\$GPGLL,3247.221,N,07954.564,W,180750,A,A*55
\c:1551625280*52\$IIHDM,189,M*3C
\c:1551625280*52\$IIMWD,138.90,T,150.89,M,08.08,N,04.16,M*41
\c:1551625280*52\$IIMWV,322,R,08.10,N,A*29
\c:1551625280*52\$IIVDR,359.98,T,011.98,M,0.00,N*06
\c:1551625280*52\$IIVHW,177,T,189,M,00.00,N,00.00,K*54
\c:1551625281*53\$IIVWR,040,L,08.24,N,04.24,M,,*24
\c:1551625281*53\$IIVPW,,N,,*1F
\c:1551625281*53\$IIVTG,315.72,T,327.72,M,0.00,N,,,A*60
\c:1551625281*53\$IIMWV,326,T,08.33,N,A*2A
\c:1551625281*53\$IIVWT,034,L,08.33,N,04.29,M,,*2A
\c:1551625281*53\$IIHDM,189,M*3C
\c:1551625281*53\$IIMWV,321,R,08.24,N,A*2D
\c:1551625281*53\$GPXTE,A,A,,R,N,A*03
\c:1551625282*50\$GPZDA,180751,03,03,2019,00,*48
\c:1551625282*50\$IIDBT,012.07,f,003.68,M,001.98,F*28
\c:1551625282*50\$GPGLL,3247.221,N,07954.564,W,180752,A,A*57
\c:1551625282*50\$IIHDM,189,M*3C
\c:1551625282*50\$IIMWD,137.26,T,149.26,M,07.93,N,04.08,M*4C
\c:1551625282*50\$IIMWV,320,T,07.93,N,A*29
\c:1551625282*50\$IIVDR,359.98,T,011.98,M,0.00,N*06
\c:1551625282*50\$IIVHW,178,T,190,M,00.00,N,00.00,K*53
\c:1551625283*51\$IIVWR,037,L,07.67,N,03.95,M,,*21
\c:1551625283*51\$IIVPW,,N,,*1F
\c:1551625283*51\$IIVTG,315.72,T,327.72,M,0.00,N,,,A*60
\c:1551625283*51\$IIMWV,314,R,07.87,N,A*2D
\c:1551625283*51\$IIVWT,046,L,07.85,N,04.04,M,,*22
\c:1551625283*51\$IIHDM,190,M*34
\c:1551625283*51\$IIMWV,315,T,07.89,N,A*24
\c:1551625283*51\$GPXTE,A,A,,R,N,A*03
\c:1551625284*56\$GPZDA,180753,03,03,2019,00,*4A
\c:1551625284*56\$IIDBT,012.23,f,003.73,M,002.01,F*27
\c:1551625284*56\$GPGLL,3247.221,N,07954.564,W,180754,A,A*51
\c:1551625284*56\$IIHDM,190,M*34
\c:1551625284*56\$IIMWD,131.25,T,143.25,M,07.91,N,04.07,M*4D
\c:1551625284*56\$IIMWV,314,R,07.93,N,A*28
\c:1551625284*56\$IIVDR,359.98,T,011.98,M,0.00,N*06
\c:1551625285*57\$IIVHW,177,T,189,M,00.00,N,00.00,K*54
\c:1551625285*57\$IIVWR,046,L,07.58,N,03.90,M,,*2E
\c:1551625285*57\$IIVPW,,N,,*1F
\c:1551625285*57\$IIVTG,315.72,T,327.72,M,0.00,N,,,A*60
\c:1551625285*57\$IIMWV,312,T,07.34,N,A*25
\c:1551625285*57\$IIVWT,051,L,07.09,N,03.65,M,,*20
\c:1551625285*57\$IIHDM,190,M*34
\c:1551625285*57\$IIMWV,309,R,06.88,N,A*2F
\c:1551625286*54\$GPXTE,A,A,,R,N,A*03
\c:1551625286*54\$GPZDA,180755,03,03,2019,00,*4C
\c:1551625286*54\$IIDBT,012.04,f,003.67,M,001.98,F*24
\c:1551625286*54\$GPGLL,3247.221,N,07954.564,W,180756,A,A*53
\c:1551625286*54\$IIHDM,190,M*34
\c:1551625286*54\$IIMWD,141.10,T,153.10,M,06.92,N,03.56,M*4A
\c:1551625286*54\$IIMWV,323,T,06.92,N,A*2A
\c:1551625286*54\$IIVDR,359.98,T,011.98,M,0.00,N*06
\c:1551625287*55\$IIVHW,178,T,190,M,00.00,N,00.00,K*53
\c:1551625287*55\$IIVWR,046,L,06.90,N,03.55,M,,*22
\c:1551625287*55\$IIVPW,,N,,*1F
\c:1551625287*55\$IIVTG,315.72,T,327.72,M,0.00,N,,,A*60
\c:1551625287*55\$IIMWV,319,R,06.84,N,A*22
\c:1551625287*55\$IIVWT,040,L,06.78,N,03.49,M,,*29
\c:1551625287*55\$IIHDM,189,M*3C
\c:1551625287*55\$IIMWV,314,T,06.72,N,A*20
\c:1551625288*5A\$GPXTE,A,A,,R,N,A*03
\c:1551625288*5A\$GPZDA,180757,03,03,2019,00,*4E
\c:1551625288*5A\$IIDBT,012.07,f,003.68,M,001.98,F*28
\c:1551625288*5A\$GPGLL,3247.221,N,07954.564,W,180758,A,A*5D
\c:1551625288*5A\$IIHDM,189,M*3C
\c:1551625288*5A\$IIMWD,125.98,T,137.98,M,06.68,N,03.44,M*4C
\c:1551625288*5A\$IIMWV,309,R,06.68,N,A*21
\c:1551625288*5A\$IIVDR,359.98,T,011.98,M,0.00,N*06
\c:1551625289*5B\$IIVHW,177,T,189,M,00.00,N,00.00,K*54
\c:1551625289*5B\$IIVWR,048,L,06.60,N,03.40,M,,*27
\c:1551625289*5B\$IIVPW,,N,,*1F
\c:1551625289*5B\$IIVTG,315.72,T,327.72,M,0.00,N,,,A*60
\c:1551625289*5B\$IIMWV,310,T,06.49,N,A*2C
\c:1551625289*5B\$IIVWT,056,L,06.37,N,03.28,M,,*22
\c:1551625289*5B\$IIHDM,189,M*3C
\c:1551625289*5B\$IIMWV,301,R,06.22,N,A*27
\c:1551625290*53\$GPXTE,A,A,,R,N,A*03
\c:1551625290*53\$GPZDA,180759,03,03,2019,00,*40
\c:1551625290*53\$IIDBT,012.04,f,003.67,M,001.98,F*24
\c:1551625290*53\$GPGLL,3247.221,N,07954.564,W,180800,A,A*5F
\c:1551625290*53\$IIHDM,190,M*34
\c:1551625290*53\$IIMWD,128.89,T,140.88,M,06.41,N,03.30,M*48
\c:1551625290*53\$IIMWV,311,T,06.41,N,A*25
\c:1551625291*52\$IIVDR,359.98,T,011.98,M,0.00,N*06
\c:1551625291*52\$IIVHW,178,T,190,M,00.00,N,00.00,K*53
\c:1551625291*52\$IIVWR,050,L,06.55,N,03.37,M,,*28
\c:1551625291*52\$IIVPW,,N,,*1F
\c:1551625291*52\$IIVTG,315.72,T,327.72,M,0.00,N,,,A*60
\c:1551625291*52\$IIMWV,298,R,06.41,N,A*23
\c:1551625291*52\$IIVWT,055,L,06.31,N,03.25,M,,*2A
\c:1551625291*52\$IIHDM,189,M*3C
\c:1551625292*51\$IIMWV,314,T,06.33,N,A*25
\c:1551625292*51\$GPXTE,A,A,,R,N,A*03
\c:1551625292*51\$GPZDA,180801,03,03,2019,00,*42
\c:1551625292*51\$IIDBT,012.07,f,003.68,M,001.98,F*28
\c:1551625292*51\$GPGLL,3247.221,N,07954.564,W,180802,A,A*5D
\c:1551625292*51\$IIHDM,189,M*3C
\c:1551625292*51\$IIMWD,125.71,T,137.71,M,06.29,N,03.24,M*4F
\c:1551625292*51\$IIMWV,309,R,06.31,N,A*2D
\c:1551625293*50\$IIVDR,359.98,T,011.98,M,0.00,N*06
\c:1551625293*50\$IIVHW,177,T,189,M,00.00,N,00.00,K*54
\c:1551625293*50\$IIVWR,043,L,06.64,N,03.42,M,,*2A
\c:1551625293*50\$IIVPW,,N,,*1F
\c:1551625293*50\$IIVTG,315.72,T,327.72,M,0.00,N,,,A*60
\c:1551625293*50\$IIMWV,313,T,06.82,N,A*28
\c:1551625293*50\$IIVWT,046,L,07.01,N,03.61,M,,*2A
\c:1551625293*50\$IIHDM,190,M*34
\c:1551625294*57\$IIMWV,315,R,07.23,N,A*22
\c:1551625294*57\$GPXTE,A,A,,R,N,A*03
\c:1551625294*57\$GPZDA,180804,03,03,2019,00,*47
\c:1551625294*57\$IIDBT,012.13,f,003.70,M,001.99,F*25
\c:1551625294*57\$GPGLL,3247.221,N,07954.564,W,180804,A,A*5B
\c:1551625294*57\$IIHDM,190,M*34
\c:1551625294*57\$IIMWD,139.77,T,151.77,M,07.65,N,03.94,M*40
\c:1551625294*57\$IIMWV,322,T,07.65,N,A*22
\c:1551625295*56\$IIVDR,359.98,T,011.98,M,0.00,N*06
\c:1551625295*56\$IIVHW,178,T,190,M,00.00,N,00.00,K*53
\c:1551625295*56\$IIVWR,040,L,07.79,N,04.01,M,,*24
\c:1551625295*56\$IIVPW,,N,,*1F
\c:1551625295*56\$IIVTG,315.72,T,327.72,M,0.00,N,,,A*60
\c:1551625295*56\$IIMWV,323,R,07.91,N,A*2E
\c:1551625295*56\$IIVWT,038,L,07.91,N,04.07,M,,*2D
\c:1551625295*56\$IIHDM,190,M*34
\c:1551625296*55\$IIMWV,322,T,08.00,N,A*2E
\c:1551625296*55\$GPXTE,A,A,,R,N,A*03
\c:1551625296*55\$GPZDA,180806,03,03,2019,00,*45
\c:1551625296*55\$IIDBT,012.04,f,003.67,M,001.98,F*24
\c:1551625296*55\$GPGLL,3247.221,N,07954.564,W,180806,A,A*59
\c:1551625296*55\$IIHDM,190,M*34
\c:1551625296*55\$IIMWD,137.76,T,149.76,M,08.31,N,04.28,M*49
\c:1551625297*54\$IIMWV,320,R,08.33,N,A*2A
\c:1551625297*54\$IIVDR,359.98,T,011.98,M,0.00,N*06
\c:1551625297*54\$IIVHW,178,T,190,M,00.00,N,00.00,K*53
\c:1551625297*54\$IIVWR,042,L,08.57,N,04.41,M,,*21
\c:1551625297*54\$IIVPW,,N,,*1F
\c:1551625297*54\$IIVTG,315.72,T,327.72,M,0.00,N,,,A*60
\c:1551625297*54\$IIMWV,318,T,08.66,N,A*27
\c:1551625297*54\$IIVWT,040,L,08.70,N,04.48,M,,*29
\c:1551625298*5B\$IIHDM,190,M*34
\c:1551625298*5B\$IIMWV,325,R,08.80,N,A*27
\c:1551625298*5B\$GPXTE,A,A,,R,N,A*03
\c:1551625298*5B\$GPZDA,180808,03,03,2019,00,*4B
\c:1551625298*5B\$IIDBT,012.07,f,003.68,M,001.98,F*28
\c:1551625298*5B\$GPGLL,3247.221,N,07954.564,W,180808,A,A*57
\c:1551625298*5B\$IIHDM,189,M*3C
\c:1551625299*5A\$IIMWD,134.80,T,146.80,M,08.78,N,04.52,M*45
\c:1551625299*5A\$IIMWV,318,T,08.78,N,A*28
\c:1551625299*5A\$IIVDR,359.98,T,011.98,M,0.00,N*06
\c:1551625299*5A\$IIVHW,177,T,189,M,00.00,N,00.00,K*54
\c:1551625299*5A\$IIVWR,037,L,08.53,N,04.39,M,,*28
\c:1551625299*5A\$IIVPW,,N,,*1F
\c:1551625299*5A\$IIVTG,315.72,T,327.72,M,0.00,N,,,A*60
\c:1551625299*5A\$IIMWV,318,R,08.53,N,A*27
\c:1551625300*5B\$IIVWT,044,L,08.41,N,04.33,M,,*23
\c:1551625300*5B\$IIHDM,189,M*3C
\c:1551625300*5B\$IIMWV,316,T,08.41,N,A*2C
\c:1551625300*5B\$GPXTE,A,A,,R,N,A*03
\c:1551625300*5B\$GPZDA,180810,03,03,2019,00,*42
\c:1551625300*5B\$IIDBT,012.07,f,003.68,M,001.98,F*28
\c:1551625300*5B\$GPGLL,3247.221,N,07954.564,W,180810,A,A*5E
\c:1551625300*5B\$IIHDM,189,M*3C
\c:1551625301*5A\$IIMWD,138.05,T,150.05,M,08.33,N,04.29,M*4D
\c:1551625301*5A\$IIMWV,321,R,08.35,N,A*2D
\c:1551625301*5A\$IIVDR,359.98,T,011.98,M,0.00,N*06
\c:1551625301*5A\$IIVHW,177,T,189,M,00.00,N,00.00,K*54
\c:1551625301*5A\$IIVWR,042,L,08.59,N,04.42,M,,*2C
\c:1551625301*5A\$IIVPW,,N,,*1F
\c:1551625301*5A\$IIVTG,315.72,T,327.72,M,0.00,N,,,A*60
\c:1551625301*5A\$IIMWV,319,T,08.70,N,A*21
\c:1551625302*59\$IIVWT,041,L,08.70,N,04.48,M,,*28
\c:1551625302*59\$IIHDM,189,M*3C
\c:1551625302*59\$IIMWV,320,R,08.90,N,A*23
\c:1551625302*59\$GPXTE,A,A,,R,N,A*03
\c:1551625302*59\$GPZDA,180812,03,03,2019,00,*40
\c:1551625302*59\$IIDBT,012.13,f,003.70,M,001.99,F*25
\c:1551625302*59\$GPGLL,3247.221,N,07954.564,W,180812,A,A*5C
\c:1551625302*59\$IIHDM,189,M*3C
\c:1551625303*58\$IIMWD,137.80,T,149.80,M,09.00,N,04.63,M*45
\c:1551625303*58\$IIMWV,317,T,09.00,N,A*29
\c:1551625303*58\$IIVDR,359.98,T,011.98,M,0.00,N*06
\c:1551625303*58\$IIVHW,177,T,189,M,00.00,N,00.00,K*54
\c:1551625303*58\$IIVWR,042,L,09.01,N,04.64,M,,*24
\c:1551625303*58\$IIVPW,,N,,*1F
\c:1551625303*58\$IIVTG,315.72,T,327.72,M,0.00,N,,,A*60
\c:1551625303*58\$IIMWV,321,R,09.25,N,A*2D
\c:1551625304*5F\$IIVWT,039,L,09.23,N,04.75,M,,*2E
\c:1551625304*5F\$IIHDM,189,M*3C
\c:1551625304*5F\$IIMWV,322,T,09.17,N,A*29
\c:1551625304*5F\$GPXTE,A,A,,R,N,A*03
\c:1551625304*5F\$GPZDA,180814,03,03,2019,00,*46
\c:1551625304*5F\$IIDBT,012.17,f,003.71,M,002.00,F*23
\c:1551625304*5F\$GPGLL,3247.221,N,07954.564,W,180814,A,A*5A
\c:1551625304*5F\$IIHDM,189,M*3C
\c:1551625305*5E\$IIMWD,138.60,T,150.60,M,09.46,N,04.87,M*4A
\c:1551625305*5E\$IIMWV,321,R,09.48,N,A*26
\c:1551625305*5E\$IIVDR,359.98,T,011.98,M,0.00,N*06
\c:1551625305*5E\$IIVHW,177,T,189,M,00.00,N,00.00,K*54
\c:1551625305*5E\$IIVWR,037,L,09.33,N,04.80,M,,*2D
\c:1551625305*5E\$IIVPW,,N,,*1F
\c:1551625305*5E\$IIVTG,315.72,T,327.72,M,0.00,N,,,A*60
\c:1551625306*5D\$IIMWV,323,T,08.84,N,A*23
\c:1551625306*5D\$IIVWT,037,L,08.84,N,04.55,M,,*2E
\c:1551625306*5D\$IIHDM,189,M*3C
\c:1551625306*5D\$IIMWV,322,R,08.76,N,A*29
\c:1551625306*5D\$GPXTE,A,A,,R,N,A*03
\c:1551625306*5D\$GPZDA,180816,03,03,2019,00,*44
\c:1551625306*5D\$IIDBT,012.04,f,003.67,M,001.98,F*24
\c:1551625306*5D\$GPGLL,3247.221,N,07954.564,W,180816,A,A*58
\c:1551625307*5C\$IIHDM,189,M*3C
\c:1551625307*5C\$IIMWD,137.81,T,149.81,M,08.76,N,04.51,M*44
\c:1551625307*5C\$IIMWV,322,T,08.88,N,A*2E
\c:1551625307*5C\$IIVDR,359.98,T,011.98,M,0.00,N*06
\c:1551625307*5C\$IIVHW,177,T,189,M,00.00,N,00.00,K*54
\c:1551625307*5C\$IIVWR,042,L,08.96,N,04.61,M,,*2E
\c:1551625307*5C\$IIVPW,,N,,*1F
\c:1551625307*5C\$IIVTG,315.72,T,327.72,M,0.00,N,,,A*60
\c:1551625308*53\$IIMWV,317,R,09.48,N,A*23
\c:1551625308*53\$IIVWT,043,L,09.46,N,04.87,M,,*2D
\c:1551625308*53\$IIHDM,189,M*3C
\c:1551625308*53\$IIMWV,325,T,09.64,N,A*2A
\c:1551625308*53\$GPXTE,A,A,,R,N,A*03
\c:1551625308*53\$GPZDA,180818,03,03,2019,00,*4A
\c:1551625308*53\$IIDBT,012.07,f,003.68,M,001.98,F*28
\c:1551625308*53\$GPGLL,3247.221,N,07954.564,W,180818,A,A*56
\c:1551625309*52\$IIHDM,189,M*3C
\c:1551625309*52\$IIMWD,142.18,T,154.18,M,09.40,N,04.84,M*46
\c:1551625309*52\$IIMWV,315,R,09.25,N,A*2A
\c:1551625309*52\$IIVDR,359.98,T,011.98,M,0.00,N*06
\c:1551625309*52\$IIVHW,177,T,189,M,00.00,N,00.00,K*54
\c:1551625309*52\$IIVWR,048,L,09.09,N,04.68,M,,*2A
\c:1551625309*52\$IIVPW,,N,,*1F
\c:1551625310*5A\$IIVTG,315.72,T,327.72,M,0.00,N,,,A*60
\c:1551625310*5A\$IIMWV,324,T,08.78,N,A*27
\c:1551625310*5A\$IIVWT,036,L,08.78,N,04.52,M,,*2B
\c:1551625310*5A\$IIHDM,189,M*3C
\c:1551625310*5A\$IIMWV,318,R,08.72,N,A*24
\c:1551625310*5A\$GPXTE,A,A,,R,N,A*03
\c:1551625310*5A\$GPZDA,180820,03,03,2019,00,*41
\c:1551625310*5A\$IIDBT,012.17,f,003.71,M,002.00,F*23
\c:1551625311*5B\$GPGLL,3247.221,N,07954.564,W,180820,A,A*5D
\c:1551625311*5B\$IIHDM,189,M*3C
\c:1551625311*5B\$IIMWD,127.93,T,139.93,M,08.37,N,04.31,M*41
\c:1551625311*5B\$IIMWV,313,T,08.33,N,A*2C
\c:1551625311*5B\$IIVDR,359.98,T,011.98,M,0.00,N*06
\c:1551625311*5B\$IIVHW,177,T,189,M,00.00,N,00.00,K*54
\c:1551625311*5B\$IIVWR,043,L,08.39,N,04.32,M,,*2C
\c:1551625311*5B\$IIVPW,,N,,*1F
\c:1551625312*58\$IIVTG,315.72,T,327.72,M,0.00,N,,,A*60
\c:1551625312*58\$IIMWV,323,R,08.57,N,A*2B
\c:1551625312*58\$IIVWT,038,L,08.55,N,04.40,M,,*29
\c:1551625312*58\$IIHDM,189,M*3C
\c:1551625312*58\$IIMWV,323,T,08.65,N,A*2C
\c:1551625312*58\$GPXTE,A,A,,R,N,A*03
\c:1551625312*58\$GPZDA,180822,03,03,2019,00,*43
\c:1551625312*58\$IIDBT,012.13,f,003.70,M,001.99,F*25
\c:1551625313*59\$GPGLL,3247.221,N,07954.564,W,180822,A,A*5F
\c:1551625313*59\$IIHDM,189,M*3C
\c:1551625313*59\$IIMWD,139.79,T,151.79,M,09.13,N,04.70,M*42
\c:1551625313*59\$IIMWV,314,R,09.25,N,A*2B
\c:1551625313*59\$IIVDR,359.98,T,011.98,M,0.00,N*06
\c:1551625313*59\$IIVHW,177,T,189,M,00.00,N,00.00,K*54
\c:1551625313*59\$IIVWR,046,L,09.25,N,04.76,M,,*25
\c:1551625313*59\$IIVPW,,N,,*1F
\c:1551625314*5E\$IIVTG,315.72,T,327.72,M,0.00,N,,,A*60
\c:1551625314*5E\$IIMWV,315,T,09.17,N,A*2D
\c:1551625314*5E\$IIVWT,045,L,09.17,N,04.72,M,,*25
\c:1551625314*5E\$IIHDM,189,M*3C
\c:1551625314*5E\$IIMWV,318,R,09.05,N,A*25
\c:1551625314*5E\$GPXTE,A,A,,R,N,A*03
\c:1551625314*5E\$GPZDA,180824,03,03,2019,00,*45
\c:1551625314*5E\$IIDBT,012.10,f,003.69,M,001.99,F*2E
\c:1551625315*5F\$GPGLL,3247.221,N,07954.564,W,180824,A,A*59
\c:1551625315*5F\$IIHDM,189,M*3C
\c:1551625315*5F\$IIMWD,134.70,T,146.70,M,08.98,N,04.62,M*48
\c:1551625315*5F\$IIMWV,318,T,08.94,N,A*2A
\c:1551625315*5F\$IIVDR,359.98,T,011.98,M,0.00,N*06
\c:1551625315*5F\$IIVHW,177,T,189,M,00.00,N,00.00,K*54
\c:1551625315*5F\$IIVWR,045,L,08.96,N,04.61,M,,*29
\c:1551625315*5F\$IIVPW,,N,,*1F
\c:1551625316*5C\$IIVTG,315.72,T,327.72,M,0.00,N,,,A*60
\c:1551625316*5C\$IIMWV,314,R,08.96,N,A*22
\c:1551625317*5D\$IIVWT,047,L,08.94,N,04.60,M,,*2E
\c:1551625317*5D\$IIHDM,189,M*3C
\c:1551625317*5D\$IIMWV,316,T,08.88,N,A*29
\c:1551625317*5D\$GPXTE,A,A,,R,N,A*03
\c:1551625317*5D\$GPZDA,180826,03,03,2019,00,*47
\c:1551625317*5D\$IIDBT,012.10,f,003.69,M,001.99,F*2E
\c:1551625317*5D\$GPGLL,3247.221,N,07954.564,W,180826,A,A*5B
\c:1551625317*5D\$IIHDM,189,M*3C
\c:1551625317*5D\$IIMWD,135.79,T,147.78,M,08.70,N,04.48,M*47
\c:1551625317*5D\$IIMWV,319,R,08.72,N,A*25
\c:1551625317*5D\$IIVDR,359.98,T,011.98,M,0.00,N*06
\c:1551625317*5D\$IIVHW,177,T,189,M,00.00,N,00.00,K*54
\c:1551625317*5D\$IIVWR,039,L,08.72,N,04.49,M,,*22
\c:1551625318*52\$IIVPW,,N,,*1F
\c:1551625318*52\$IIVTG,315.72,T,327.72,M,0.00,N,,,A*60
\c:1551625318*52\$IIMWV,321,T,08.70,N,A*2A
\c:1551625318*52\$IIVWT,040,L,08.70,N,04.48,M,,*29
\c:1551625318*52\$IIHDM,190,M*34
\c:1551625318*52\$IIMWV,323,R,08.68,N,A*27
\c:1551625318*52\$GPXTE,A,A,,R,N,A*03
\c:1551625318*52\$GPZDA,180828,03,03,2019,00,*49
\c:1551625319*53\$IIDBT,012.07,f,003.68,M,001.98,F*28
\c:1551625319*53\$GPGLL,3247.221,N,07954.564,W,180828,A,A*55
\c:1551625319*53\$IIHDM,189,M*3C
\c:1551625319*53\$IIMWD,133.04,T,145.04,M,08.33,N,04.29,M*42
\c:1551625319*53\$IIMWV,316,T,08.33,N,A*29
\c:1551625319*53\$IIVDR,359.98,T,011.98,M,0.00,N*06
\c:1551625319*53\$IIVHW,177,T,189,M,00.00,N,00.00,K*54
\c:1551625319*53\$IIVWR,040,L,08.16,N,04.20,M,,*21
\c:1551625320*59\$IIVPW,,N,,*1F
\c:1551625320*59\$IIVTG,315.72,T,327.72,M,0.00,N,,,A*60
\c:1551625320*59\$IIMWV,318,R,07.93,N,A*24
\c:1551625320*59\$IIVWT,042,L,07.91,N,04.07,M,,*20
\c:1551625320*59\$IIHDM,189,M*3C
\c:1551625320*59\$IIMWV,319,T,07.89,N,A*28
\c:1551625320*59\$GPXTE,A,A,,R,N,A*03
\c:1551625320*59\$GPZDA,180830,03,03,2019,00,*40
\c:1551625321*58\$IIDBT,012.10,f,003.69,M,001.99,F*2E
\c:1551625321*58\$GPGLL,3247.221,N,07954.564,W,180830,A,A*5C
\c:1551625321*58\$IIHDM,189,M*3C
\c:1551625321*58\$IIMWD,132.39,T,144.39,M,07.38,N,03.80,M*42
\c:1551625321*58\$IIMWV,315,R,07.40,N,A*27
\c:1551625321*58\$IIVDR,359.98,T,011.98,M,0.00,N*06
\c:1551625321*58\$IIVHW,177,T,189,M,00.00,N,00.00,K*54
\c:1551625322*5B\$IIVWR,044,L,07.54,N,03.88,M,,*29
\c:1551625322*5B\$IIVPW,,N,,*1F
\c:1551625322*5B\$IIVTG,315.72,T,327.72,M,0.00,N,,,A*60
\c:1551625322*5B\$IIMWV,309,T,07.48,N,A*24
\c:1551625322*5B\$IIVWT,051,L,07.48,N,03.85,M,,*2B
\c:1551625322*5B\$IIHDM,189,M*3C
\c:1551625322*5B\$IIMWV,318,R,07.36,N,A*2B
\c:1551625322*5B\$GPXTE,A,A,,R,N,A*03
\c:1551625323*5A\$GPZDA,180832,03,03,2019,00,*42
\c:1551625323*5A\$IIDBT,012.07,f,003.68,M,001.98,F*28
\c:1551625323*5A\$GPGLL,3247.221,N,07954.564,W,180832,A,A*5E
\c:1551625323*5A\$IIHDM,189,M*3C
\c:1551625323*5A\$IIMWD,130.86,T,142.86,M,06.68,N,03.44,M*4A
\c:1551625323*5A\$IIMWV,314,T,06.68,N,A*2B
\c:1551625323*5A\$IIVDR,359.98,T,011.98,M,0.00,N*06
\c:1551625323*5A\$IIVHW,177,T,189,M,00.00,N,00.00,K*54
\c:1551625324*5D\$IIVWR,045,L,06.97,N,03.59,M,,*2A
\c:1551625324*5D\$IIVPW,,N,,*1F
\c:1551625324*5D\$IIVTG,315.72,T,327.72,M,0.00,N,,,A*60
\c:1551625324*5D\$IIMWV,319,R,06.97,N,A*20
\c:1551625324*5D\$IIVWT,041,L,06.95,N,03.58,M,,*2B
\c:1551625324*5D\$IIHDM,189,M*3C
\c:1551625324*5D\$IIMWV,323,T,06.88,N,A*21
\c:1551625324*5D\$GPXTE,A,A,,R,N,A*03
\c:1551625325*5C\$GPZDA,180834,03,03,2019,00,*44
\c:1551625325*5C\$IIDBT,012.10,f,003.69,M,001.99,F*2E
\c:1551625325*5C\$GPGLL,3247.221,N,07954.564,W,180834,A,A*58
\c:1551625325*5C\$IIHDM,189,M*3C
\c:1551625325*5C\$IIMWD,130.16,T,142.16,M,06.72,N,03.46,M*43
\c:1551625325*5C\$IIMWV,313,R,06.74,N,A*27
\c:1551625325*5C\$IIVDR,359.98,T,011.98,M,0.00,N*06
\c:1551625325*5C\$IIVHW,177,T,189,M,00.00,N,00.00,K*54
\c:1551625326*5F\$IIVWR,050,L,06.78,N,03.49,M,,*2E
\c:1551625326*5F\$IIVPW,,N,,*1F
\c:1551625326*5F\$IIVTG,315.72,T,327.72,M,0.00,N,,,A*60
\c:1551625326*5F\$IIMWV,311,T,06.76,N,A*21
\c:1551625326*5F\$IIVWT,049,L,06.70,N,03.45,M,,*24
\c:1551625326*5F\$IIHDM,189,M*3C
\c:1551625326*5F\$IIMWV,313,R,06.57,N,A*26
\c:1551625326*5F\$GPXTE,A,A,,R,N,A*03
\c:1551625327*5E\$GPZDA,180836,03,03,2019,00,*46
\c:1551625327*5E\$IIDBT,012.17,f,003.71,M,002.00,F*23
\c:1551625327*5E\$GPGLL,3247.221,N,07954.564,W,180836,A,A*5A
\c:1551625327*5E\$IIHDM,189,M*3C
\c:1551625327*5E\$IIMWD,126.24,T,138.24,M,06.31,N,03.25,M*4B
\c:1551625327*5E\$IIMWV,309,T,06.31,N,A*2B
\c:1551625327*5E\$IIVDR,359.98,T,011.98,M,0.00,N*06
\c:1551625328*51\$IIVHW,177,T,189,M,00.00,N,00.00,K*54
\c:1551625328*51\$IIVWR,049,L,06.35,N,03.27,M,,*27
\c:1551625328*51\$IIVPW,,N,,*1F
\c:1551625328*51\$IIVTG,315.72,T,327.72,M,0.00,N,,,A*60
\c:1551625328*51\$IIMWV,312,R,06.22,N,A*25
\c:1551625328*51\$IIVWT,045,L,06.04,N,03.11,M,,*2A
\c:1551625328*51\$IIHDM,189,M*3C
\c:1551625328*51\$IIMWV,322,T,05.87,N,A*2C
\c:1551625329*50\$GPXTE,A,A,,R,N,A*03
\c:1551625329*50\$GPZDA,180838,03,03,2019,00,*48
\c:1551625329*50\$IIDBT,012.20,f,003.72,M,002.01,F*25
\c:1551625329*50\$GPGLL,3247.221,N,07954.564,W,180838,A,A*54
\c:1551625329*50\$IIHDM,189,M*3C
\c:1551625329*50\$IIMWD,155.49,T,167.49,M,05.55,N,02.86,M*4C
\c:1551625329*50\$IIMWV,339,R,05.57,N,A*2D
\c:1551625329*50\$IIVDR,359.98,T,011.98,M,0.00,N*06
\c:1551625330*58\$IIVHW,177,T,189,M,00.00,N,00.00,K*54
\c:1551625330*58\$IIVWR,023,L,05.42,N,02.79,M,,*22
\c:1551625330*58\$IIVPW,,N,,*1F
\c:1551625330*58\$IIVTG,315.72,T,327.72,M,0.00,N,,,A*60
\c:1551625330*58\$IIMWV,339,T,05.53,N,A*2F
\c:1551625330*58\$IIVWT,013,L,05.17,N,02.66,M,,*29
\c:1551625330*58\$IIHDM,189,M*3C
\c:1551625330*58\$IIMWV,347,R,05.19,N,A*2E
\c:1551625331*59\$GPXTE,A,A,,R,N,A*03
\c:1551625331*59\$GPZDA,180840,03,03,2019,00,*47
\c:1551625331*59\$IIDBT,012.04,f,003.67,M,001.98,F*24
\c:1551625331*59\$GPGLL,3247.221,N,07954.564,W,180840,A,A*5B
\c:1551625331*59\$IIHDM,189,M*3C
\c:1551625331*59\$IIMWD,132.08,T,144.08,M,04.49,N,02.31,M*4C
\c:1551625331*59\$IIMWV,315,T,04.49,N,A*2B
\c:1551625331*59\$IIVDR,359.98,T,011.98,M,0.00,N*06
\c:1551625332*5A\$IIVHW,177,T,189,M,00.00,N,00.00,K*54
\c:1551625332*5A\$IIVWR,033,L,04.89,N,02.52,M,,*2C
\c:1551625332*5A\$IIVPW,,N,,*1F
\c:1551625332*5A\$IIVTG,315.72,T,327.72,M,0.00,N,,,A*60
\c:1551625332*5A\$IIMWV,327,R,04.89,N,A*20
\c:1551625332*5A\$IIVWT,032,L,05.22,N,02.69,M,,*23
\c:1551625332*5A\$IIHDM,189,M*3C
\c:1551625333*5B\$IIMWV,328,T,05.22,N,A*29
\c:1551625333*5B\$GPXTE,A,A,,R,N,A*03
\c:1551625333*5B\$GPZDA,180842,03,03,2019,00,*45
\c:1551625333*5B\$IIDBT,012.23,f,003.73,M,002.01,F*27
\c:1551625333*5B\$GPGLL,3247.221,N,07954.564,W,180842,A,A*59
\c:1551625333*5B\$IIHDM,189,M*3C
\c:1551625333*5B\$IIMWD,152.93,T,164.93,M,05.73,N,02.95,M*4E
\c:1551625333*5B\$IIMWV,337,R,05.75,N,A*23
\c:1551625334*5C\$IIVDR,359.98,T,011.98,M,0.00,N*06
\c:1551625334*5C\$IIVHW,177,T,189,M,00.00,N,00.00,K*54
\c:1551625334*5C\$IIVWR,037,L,06.08,N,03.13,M,,*27
\c:1551625334*5C\$IIVPW,,N,,*1F
\c:1551625334*5C\$IIVTG,315.72,T,327.72,M,0.00,N,,,A*60
\c:1551625334*5C\$IIMWV,310,T,06.20,N,A*23
\c:1551625334*5C\$IIVWT,053,L,06.25,N,03.22,M,,*2E
\c:1551625334*5C\$IIHDM,189,M*3C
\c:1551625335*5D\$IIMWV,317,R,06.31,N,A*22
\c:1551625335*5D\$GPXTE,A,A,,R,N,A*03
\c:1551625335*5D\$GPZDA,180844,03,03,2019,00,*43
\c:1551625335*5D\$IIDBT,012.20,f,003.72,M,002.01,F*25
\c:1551625335*5D\$GPGLL,3247.221,N,07954.564,W,180844,A,A*5F
\c:1551625335*5D\$IIHDM,189,M*3C
\c:1551625335*5D\$IIMWD,141.00,T,153.00,M,07.13,N,03.67,M*40
\c:1551625335*5D\$IIMWV,324,T,07.13,N,A*25
\c:1551625336*5E\$IIVDR,359.98,T,011.98,M,0.00,N*06
\c:1551625336*5E\$IIVHW,177,T,189,M,00.00,N,00.00,K*54
\c:1551625336*5E\$IIVWR,042,L,07.36,N,03.79,M,,*25
\c:1551625336*5E\$IIVPW,,N,,*1F
\c:1551625336*5E\$IIVTG,315.72,T,327.72,M,0.00,N,,,A*60
\c:1551625336*5E\$IIMWV,319,R,07.50,N,A*2A
\c:1551625336*5E\$IIVWT,037,L,07.58,N,03.90,M,,*2E
\c:1551625336*5E\$IIHDM,189,M*3C
\c:1551625337*5F\$IIMWV,323,T,07.58,N,A*2D
\c:1551625337*5F\$GPXTE,A,A,,R,N,A*03
\c:1551625337*5F\$GPZDA,180846,03,03,2019,00,*41
\c:1551625337*5F\$IIDBT,012.13,f,003.70,M,001.99,F*25
\c:1551625337*5F\$GPGLL,3247.221,N,07954.564,W,180846,A,A*5D
\c:1551625337*5F\$IIHDM,189,M*3C
\c:1551625337*5F\$IIMWD,143.25,T,155.24,M,07.71,N,03.97,M*4E
\c:1551625337*5F\$IIMWV,327,R,07.73,N,A*26
\c:1551625338*50\$IIVDR,359.98,T,011.98,M,0.00,N*06
\c:1551625338*50\$IIVHW,177,T,189,M,00.00,N,00.00,K*54
\c:1551625338*50\$IIVWR,039,L,07.87,N,04.05,M,,*2F
\c:1551625338*50\$IIVPW,,N,,*1F
\c:1551625338*50\$IIVTG,315.72,T,327.72,M,0.00,N,,,A*60
\c:1551625338*50\$IIMWV,320,T,07.91,N,A*2B
\c:1551625338*50\$IIVWT,038,L,07.95,N,04.09,M,,*27
\c:1551625339*51\$IIHDM,189,M*3C
\c:1551625339*51\$IIMWV,322,R,07.93,N,A*2D
\c:1551625339*51\$GPXTE,A,A,,R,N,A*03
\c:1551625339*51\$GPZDA,180848,03,03,2019,00,*4F
\c:1551625339*51\$IIDBT,012.10,f,003.69,M,001.99,F*2E
\c:1551625339*51\$GPGLL,3247.221,N,07954.564,W,180848,A,A*53
\c:1551625339*51\$IIHDM,189,M*3C
\c:1551625339*51\$IIMWD,133.59,T,145.59,M,08.02,N,04.13,M*49
\c:1551625340*5F\$IIMWV,317,T,08.02,N,A*2A
\c:1551625340*5F\$IIVDR,359.98,T,011.98,M,0.00,N*06
\c:1551625340*5F\$IIVHW,177,T,189,M,00.00,N,00.00,K*54
\c:1551625340*5F\$IIVWR,040,L,08.00,N,04.12,M,,*27
\c:1551625340*5F\$IIVPW,,N,,*1F
\c:1551625340*5F\$IIVTG,315.72,T,327.72,M,0.00,N,,,A*60
\c:1551625340*5F\$IIMWV,319,R,07.96,N,A*20
\c:1551625340*5F\$IIVWT,041,L,07.95,N,04.09,M,,*29
\c:1551625341*5E\$IIHDM,189,M*3C
\c:1551625341*5E\$IIMWV,319,T,07.91,N,A*21
\c:1551625341*5E\$GPXTE,A,A,,R,N,A*03
\c:1551625341*5E\$GPZDA,180850,03,03,2019,00,*46
\c:1551625341*5E\$IIDBT,012.00,f,003.66,M,001.97,F*2E
\c:1551625341*5E\$GPGLL,3247.221,N,07954.564,W,180851,A,A*5B
\c:1551625341*5E\$IIHDM,189,M*3C
\c:1551625342*5D\$IIMWD,137.95,T,149.95,M,07.91,N,04.07,M*41
\c:1551625342*5D\$IIMWV,319,R,08.00,N,A*20
\c:1551625342*5D\$IIVDR,359.98,T,011.98,M,0.00,N*06
\c:1551625342*5D\$IIVHW,177,T,189,M,00.00,N,00.00,K*54
\c:1551625342*5D\$IIVWR,037,L,08.26,N,04.25,M,,*27
\c:1551625342*5D\$IIVPW,,N,,*1F
\c:1551625342*5D\$IIVTG,315.72,T,327.72,M,0.00,N,,,A*60
\c:1551625342*5D\$IIMWV,325,T,08.33,N,A*29
\c:1551625343*5C\$IIVWT,035,L,08.33,N,04.29,M,,*2B
\c:1551625343*5C\$IIHDM,190,M*34
\c:1551625343*5C\$IIMWV,321,R,08.43,N,A*2C
\c:1551625343*5C\$GPXTE,A,A,,R,N,A*03
\c:1551625343*5C\$GPZDA,180852,03,03,2019,00,*44
\c:1551625343*5C\$IIDBT,012.04,f,003.67,M,001.98,F*24
\c:1551625343*5C\$GPGLL,3247.221,N,07954.564,W,180853,A,A*59
\c:1551625343*5C\$IIHDM,189,M*3C
\c:1551625344*5B\$IIMWD,140.00,T,152.00,M,08.45,N,04.35,M*4C
\c:1551625344*5B\$IIMWV,319,T,08.41,N,A*23
\c:1551625344*5B\$IIVDR,359.98,T,011.98,M,0.00,N*06
\c:1551625344*5B\$IIVHW,177,T,189,M,00.00,N,00.00,K*54
\c:1551625344*5B\$IIVWR,040,L,08.39,N,04.32,M,,*2F
\c:1551625344*5B\$IIVPW,,N,,*1F
\c:1551625344*5B\$IIVTG,315.72,T,327.72,M,0.00,N,,,A*60
\c:1551625344*5B\$IIMWV,323,R,08.33,N,A*29
\c:1551625345*5A\$IIVWT,037,L,08.31,N,04.28,M,,*2A
\c:1551625345*5A\$IIHDM,189,M*3C
\c:1551625345*5A\$IIMWV,321,T,08.31,N,A*2F
\c:1551625345*5A\$GPXTE,A,A,,R,N,A*03
\c:1551625345*5A\$GPZDA,180854,03,03,2019,00,*42
\c:1551625345*5A\$IIDBT,012.04,f,003.67,M,001.98,F*24
\c:1551625345*5A\$GPGLL,3247.221,N,07954.564,W,180855,A,A*5F
\c:1551625345*5A\$IIHDM,190,M*34
\c:1551625346*59\$IIMWD,142.06,T,154.06,M,08.31,N,04.28,M*47
\c:1551625346*59\$IIMWV,323,R,08.26,N,A*2D
\c:1551625346*59\$IIVDR,359.98,T,011.98,M,0.00,N*06
\c:1551625346*59\$IIVHW,178,T,190,M,00.00,N,00.00,K*53
\c:1551625346*59\$IIVWR,040,L,08.26,N,04.25,M,,*27
\c:1551625346*59\$IIVPW,,N,,*1F
\c:1551625346*59\$IIVTG,315.72,T,327.72,M,0.00,N,,,A*60
\c:1551625346*59\$IIMWV,317,T,08.18,N,A*21
\c:1551625347*58\$IIVWT,043,L,08.18,N,04.21,M,,*2B
\c:1551625347*58\$IIHDM,190,M*34
\c:1551625347*58\$IIMWV,323,R,08.20,N,A*2B
\c:1551625347*58\$GPXTE,A,A,,R,N,A*03
\c:1551625347*58\$GPZDA,180856,03,03,2019,00,*40
\c:1551625347*58\$IIDBT,012.04,f,003.67,M,001.98,F*24
\c:1551625347*58\$GPGLL,3247.221,N,07954.564,W,180857,A,A*5D
\c:1551625347*58\$IIHDM,189,M*3C
\c:1551625348*57\$IIMWD,135.87,T,147.87,M,08.08,N,04.16,M*42
\c:1551625348*57\$IIMWV,321,T,08.10,N,A*2C
\c:1551625348*57\$IIVDR,359.98,T,011.98,M,0.00,N*06
\c:1551625348*57\$IIVHW,177,T,189,M,00.00,N,00.00,K*54
\c:1551625348*57\$IIVWR,040,L,08.10,N,04.17,M,,*23
\c:1551625348*57\$IIVPW,,N,,*1F
\c:1551625348*57\$IIVTG,315.72,T,327.72,M,0.00,N,,,A*60
\c:1551625349*56\$IIMWV,317,R,08.06,N,A*28
\c:1551625349*56\$IIVWT,043,L,08.04,N,04.14,M,,*20
\c:1551625349*56\$IIHDM,190,M*34
\c:1551625349*56\$IIMWV,317,T,08.04,N,A*2C
\c:1551625349*56\$GPXTE,A,A,,R,N,A*03
\c:1551625349*56\$GPZDA,180858,03,03,2019,00,*4E
\c:1551625349*56\$IIDBT,012.04,f,003.67,M,001.98,F*24
\c:1551625349*56\$GPGLL,3247.221,N,07954.564,W,180859,A,A*53
\c:1551625350*5E\$IIHDM,190,M*34
\c:1551625350*5E\$IIMWD,136.73,T,148.72,M,08.10,N,04.17,M*47
\c:1551625350*5E\$IIMWV,315,R,08.12,N,A*2F
\c:1551625350*5E\$IIVDR,359.98,T,011.98,M,0.00,N*06
\c:1551625350*5E\$IIVHW,178,T,190,M,00.00,N,00.00,K*53
\c:1551625350*5E\$IIVWR,039,L,08.10,N,04.17,M,,*2D
\c:1551625350*5E\$IIVPW,,N,,*1F
\c:1551625350*5E\$IIVTG,315.72,T,327.72,M,0.00,N,,,A*60
\c:1551625351*5F\$IIMWV,320,T,08.06,N,A*2A
\c:1551625351*5F\$IIVWT,040,L,08.06,N,04.15,M,,*20
\c:1551625351*5F\$IIHDM,189,M*3C
\c:1551625351*5F\$IIMWV,320,R,08.02,N,A*28
\c:1551625351*5F\$GPXTE,A,A,,R,N,A*03
\c:1551625351*5F\$GPZDA,180900,03,03,2019,00,*42
\c:1551625351*5F\$IIDBT,012.04,f,003.67,M,001.98,F*24
\c:1551625352*5C\$GPGLL,3247.221,N,07954.564,W,180901,A,A*5F
\c:1551625352*5C\$IIHDM,189,M*3C
\c:1551625352*5C\$IIMWD,138.10,T,150.10,M,07.93,N,04.08,M*4B
\c:1551625352*5C\$IIMWV,322,T,07.91,N,A*29
\c:1551625352*5C\$IIVDR,359.98,T,011.98,M,0.00,N*06
\c:1551625352*5C\$IIVHW,177,T,189,M,00.00,N,00.00,K*54
\c:1551625352*5C\$IIVWR,038,L,07.93,N,04.08,M,,*26
\c:1551625352*5C\$IIVPW,,N,,*1F
\c:1551625353*5D\$IIVTG,315.72,T,327.72,M,0.00,N,,,A*60
\c:1551625353*5D\$IIMWV,318,R,07.91,N,A*26
\c:1551625353*5D\$IIVWT,042,L,07.89,N,04.06,M,,*28
\c:1551625353*5D\$IIHDM,189,M*3C
\c:1551625353*5D\$IIMWV,317,T,07.89,N,A*26
\c:1551625353*5D\$GPXTE,A,A,,R,N,A*03
\c:1551625353*5D\$GPZDA,180902,03,03,2019,00,*40
\c:1551625353*5D\$IIDBT,012.04,f,003.67,M,001.98,F*24
\c:1551625354*5A\$GPGLL,3247.221,N,07954.564,W,180903,A,A*5D
\c:1551625354*5A\$IIHDM,189,M*3C
\c:1551625354*5A\$IIMWD,124.53,T,136.52,M,08.12,N,04.18,M*40
\c:1551625354*5A\$IIMWV,312,R,08.33,N,A*2B
\c:1551625354*5A\$IIVDR,359.98,T,011.98,M,0.00,N*06
\c:1551625354*5A\$IIVHW,177,T,189,M,00.00,N,00.00,K*54
\c:1551625354*5A\$IIVWR,046,L,08.47,N,04.36,M,,*24
\c:1551625354*5A\$IIVPW,,N,,*1F
\c:1551625355*5B\$IIVTG,315.72,T,327.72,M,0.00,N,,,A*60
\c:1551625355*5B\$IIMWV,330,T,08.33,N,A*2D
\c:1551625355*5B\$IIVWT,030,L,08.33,N,04.29,M,,*2E
\c:1551625355*5B\$IIHDM,189,M*3C
\c:1551625355*5B\$IIMWV,325,R,08.20,N,A*2D
\c:1551625355*5B\$GPXTE,A,A,,R,N,A*03
\c:1551625355*5B\$GPZDA,180904,03,03,2019,00,*46
\c:1551625355*5B\$IIDBT,012.10,f,003.69,M,001.99,F*2E
\c:1551625356*58\$GPGLL,3247.221,N,07954.564,W,180905,A,A*5B
\c:1551625356*58\$IIHDM,189,M*3C
\c:1551625356*58\$IIMWD,128.45,T,140.45,M,07.75,N,03.99,M*4C
\c:1551625356*58\$IIMWV,314,T,07.42,N,A*22
\c:1551625356*58\$IIVDR,359.98,T,011.98,M,0.00,N*06
\c:1551625356*58\$IIVHW,177,T,189,M,00.00,N,00.00,K*54
\c:1551625356*58\$IIVWR,033,L,07.21,N,03.71,M,,*2D
\c:1551625356*58\$IIVPW,,N,,*1F
\c:1551625357*59\$IIVTG,315.72,T,327.72,M,0.00,N,,,A*60
\c:1551625357*59\$IIMWV,331,R,06.90,N,A*2D
\c:1551625357*59\$IIVWT,029,L,06.88,N,03.54,M,,*25
\c:1551625357*59\$IIHDM,189,M*3C
\c:1551625357*59\$IIMWV,315,T,07.01,N,A*24
\c:1551625357*59\$GPXTE,A,A,,R,N,A*03
\c:1551625357*59\$GPZDA,180907,03,03,2019,00,*45
\c:1551625357*59\$IIDBT,012.17,f,003.71,M,002.00,F*23
\c:1551625358*56\$GPGLL,3247.221,N,07954.564,W,180907,A,A*59
\c:1551625358*56\$IIHDM,189,M*3C
\c:1551625358*56\$IIMWD,138.24,T,150.23,M,07.34,N,03.78,M*41
\c:1551625358*56\$IIMWV,314,R,07.34,N,A*25
\c:1551625358*56\$IIVDR,359.98,T,011.98,M,0.00,N*06
\c:1551625358*56\$IIVHW,177,T,189,M,00.00,N,00.00,K*54
\c:1551625358*56\$IIVWR,038,L,07.26,N,03.74,M,,*24
\c:1551625358*56\$IIVPW,,N,,*1F
\c:1551625359*57\$IIVTG,315.72,T,327.72,M,0.00,N,,,A*60
\c:1551625359*57\$IIMWV,336,T,07.52,N,A*23
\c:1551625359*57\$IIVWT,025,L,07.52,N,03.87,M,,*21
\c:1551625359*57\$IIHDM,189,M*3C
\c:1551625359*57\$IIMWV,331,R,07.58,N,A*28
\c:1551625359*57\$GPXTE,A,A,,R,N,A*03
\c:1551625359*57\$GPZDA,180909,03,03,2019,00,*4B
\c:1551625360*5D\$IIDBT,012.10,f,003.69,M,001.99,F*2E
\c:1551625360*5D\$GPGLL,3247.221,N,07954.564,W,180909,A,A*57
\c:1551625360*5D\$IIHDM,189,M*3C
\c:1551625360*5D\$IIMWD,141.50,T,153.50,M,07.95,N,04.09,M*41
\c:1551625360*5D\$IIMWV,322,T,07.89,N,A*20
\c:1551625360*5D\$IIVDR,359.98,T,011.98,M,0.00,N*06
\c:1551625360*5D\$IIVHW,177,T,189,M,00.00,N,00.00,K*54
\c:1551625360*5D\$IIVWR,028,L,07.79,N,04.01,M,,*2A
\c:1551625361*5C\$IIVPW,,N,,*1F
\c:1551625361*5C\$IIVTG,315.72,T,327.72,M,0.00,N,,,A*60
\c:1551625361*5C\$IIMWV,324,R,07.44,N,A*21
\c:1551625361*5C\$IIVWT,036,L,07.42,N,03.82,M,,*27
\c:1551625361*5C\$IIHDM,189,M*3C
\c:1551625361*5C\$IIMWV,321,T,07.32,N,A*23
\c:1551625361*5C\$GPXTE,A,A,,R,N,A*03
\c:1551625361*5C\$GPZDA,180911,03,03,2019,00,*42
\c:1551625362*5F\$IIDBT,012.10,f,003.69,M,001.99,F*2E
\c:1551625362*5F\$GPGLL,3247.221,N,07954.564,W,180911,A,A*5E
\c:1551625362*5F\$IIHDM,189,M*3C
\c:1551625362*5F\$IIMWD,144.61,T,156.61,M,07.48,N,03.85,M*42
\c:1551625362*5F\$IIMWV,328,R,07.50,N,A*28
\c:1551625362*5F\$IIVDR,359.98,T,011.98,M,0.00,N*06
\c:1551625362*5F\$IIVHW,177,T,189,M,00.00,N,00.00,K*54
\c:1551625362*5F\$IIVWR,031,L,07.26,N,03.74,M,,*2D
\c:1551625363*5E\$IIVPW,,N,,*1F
\c:1551625363*5E\$IIVTG,315.72,T,327.72,M,0.00,N,,,A*60
\c:1551625363*5E\$IIMWV,312,T,07.32,N,A*23
\c:1551625363*5E\$IIVWT,049,L,07.32,N,03.77,M,,*22
\c:1551625363*5E\$IIHDM,189,M*3C
\c:1551625363*5E\$IIMWV,312,R,07.34,N,A*23
\c:1551625363*5E\$GPXTE,A,A,,R,N,A*03
\c:1551625363*5E\$GPZDA,180913,03,03,2019,00,*40
\c:1551625364*59\$IIDBT,012.04,f,003.67,M,001.98,F*24
\c:1551625364*59\$GPGLL,3247.221,N,07954.564,W,180913,A,A*5C
\c:1551625364*59\$IIHDM,189,M*3C
\c:1551625364*59\$IIMWD,134.94,T,146.94,M,07.44,N,03.83,M*4E
\c:1551625364*59\$IIMWV,318,T,07.44,N,A*28
\c:1551625364*59\$IIVDR,359.98,T,011.98,M,0.00,N*06
\c:1551625364*59\$IIVHW,177,T,189,M,00.00,N,00.00,K*54
\c:1551625365*58\$IIVWR,045,L,07.36,N,03.79,M,,*22
\c:1551625365*58\$IIVPW,,N,,*1F
\c:1551625365*58\$IIVTG,315.72,T,327.72,M,0.00,N,,,A*60
\c:1551625365*58\$IIMWV,319,R,07.44,N,A*2F
\c:1551625365*58\$IIVWT,042,L,07.42,N,03.82,M,,*24
\c:1551625365*58\$IIHDM,189,M*3C
\c:1551625365*58\$IIMWV,320,T,07.42,N,A*25
\c:1551625365*58\$GPXTE,A,A,,R,N,A*03
\c:1551625366*5B\$GPZDA,180915,03,03,2019,00,*46
\c:1551625366*5B\$IIDBT,012.04,f,003.67,M,001.98,F*24
\c:1551625366*5B\$GPGLL,3247.221,N,07954.564,W,180915,A,A*5A
\c:1551625366*5B\$IIHDM,189,M*3C
\c:1551625366*5B\$IIMWD,134.78,T,146.77,M,07.58,N,03.90,M*4E
\c:1551625366*5B\$IIMWV,318,R,07.60,N,A*28
\c:1551625366*5B\$IIVDR,359.98,T,011.98,M,0.00,N*06
\c:1551625366*5B\$IIVHW,177,T,189,M,00.00,N,00.00,K*54
\c:1551625367*5A\$IIVWR,050,L,08.06,N,04.15,M,,*27
\c:1551625367*5A\$IIVPW,,N,,*1F
\c:1551625367*5A\$IIVTG,315.72,T,327.72,M,0.00,N,,,A*60
\c:1551625367*5A\$IIMWV,312,T,08.10,N,A*2C
\c:1551625367*5A\$IIVWT,040,L,08.18,N,04.21,M,,*28
\c:1551625367*5A\$IIHDM,189,M*3C
\c:1551625367*5A\$IIMWV,315,R,08.26,N,A*28
\c:1551625367*5A\$GPXTE,A,A,,R,N,A*03
\c:1551625368*55\$GPZDA,180917,03,03,2019,00,*44
\c:1551625368*55\$IIDBT,012.10,f,003.69,M,001.99,F*2E
\c:1551625368*55\$GPGLL,3247.221,N,07954.564,W,180917,A,A*58
\c:1551625368*55\$IIHDM,189,M*3C
\c:1551625368*55\$IIMWD,134.04,T,146.04,M,08.31,N,04.28,M*45
\c:1551625368*55\$IIMWV,317,T,08.31,N,A*2A
\c:1551625368*55\$IIVDR,359.98,T,011.98,M,0.00,N*06
\c:1551625368*55\$IIVHW,177,T,189,M,00.00,N,00.00,K*54
\c:1551625369*54\$IIVWR,046,L,08.16,N,04.20,M,,*27
\c:1551625369*54\$IIVPW,,N,,*1F
\c:1551625369*54\$IIVTG,315.72,T,327.72,M,0.00,N,,,A*60
\c:1551625369*54\$IIMWV,317,R,08.06,N,A*28
\c:1551625369*54\$IIVWT,045,L,08.00,N,04.12,M,,*24
\c:1551625369*54\$IIHDM,189,M*3C
\c:1551625369*54\$IIMWV,312,T,07.98,N,A*23
\c:1551625369*54\$GPXTE,A,A,,R,N,A*03
\c:1551625370*5C\$GPZDA,180919,03,03,2019,00,*4A
\c:1551625370*5C\$IIDBT,012.20,f,003.72,M,002.01,F*25
\c:1551625370*5C\$GPGLL,3247.221,N,07954.564,W,180919,A,A*56
\c:1551625370*5C\$IIHDM,189,M*3C
\c:1551625370*5C\$IIMWD,130.18,T,142.17,M,08.04,N,04.14,M*43
\c:1551625370*5C\$IIMWV,313,R,08.06,N,A*2C
\c:1551625370*5C\$IIVDR,359.98,T,011.98,M,0.00,N*06
\c:1551625371*5D\$IIVHW,177,T,189,M,00.00,N,00.00,K*54
\c:1551625371*5D\$IIVWR,039,L,08.02,N,04.13,M,,*2A
\c:1551625371*5D\$IIVPW,,N,,*1F
\c:1551625371*5D\$IIVTG,315.72,T,327.72,M,0.00,N,,,A*60
\c:1551625371*5D\$IIMWV,320,T,07.91,N,A*2B
\c:1551625371*5D\$IIVWT,037,L,07.75,N,03.99,M,,*28
\c:1551625371*5D\$IIHDM,189,M*3C
\c:1551625371*5D\$IIMWV,325,R,07.69,N,A*2F
\c:1551625372*5E\$GPXTE,A,A,,R,N,A*03
\c:1551625372*5E\$GPZDA,180921,03,03,2019,00,*41
\c:1551625372*5E\$IIDBT,012.04,f,003.67,M,001.98,F*24
\c:1551625372*5E\$GPGLL,3247.221,N,07954.564,W,180921,A,A*5D
\c:1551625372*5E\$IIHDM,190,M*34
\c:1551625372*5E\$IIMWD,138.38,T,150.38,M,07.67,N,03.95,M*43
\c:1551625372*5E\$IIMWV,321,T,07.67,N,A*23
\c:1551625372*5E\$IIVDR,359.98,T,011.98,M,0.00,N*06
\c:1551625373*5F\$IIVHW,178,T,190,M,00.00,N,00.00,K*53
\c:1551625373*5F\$IIVWR,034,L,07.60,N,03.91,M,,*21
\c:1551625373*5F\$IIVPW,,N,,*1F
\c:1551625373*5F\$IIVTG,315.72,T,327.72,M,0.00,N,,,A*60
\c:1551625373*5F\$IIMWV,318,R,07.46,N,A*2C
\c:1551625373*5F\$IIVWT,045,L,07.32,N,03.77,M,,*2E
\c:1551625373*5F\$IIHDM,190,M*34
\c:1551625373*5F\$IIMWV,315,T,07.26,N,A*21
\c:1551625374*58\$GPXTE,A,A,,R,N,A*03
\c:1551625374*58\$GPZDA,180923,03,03,2019,00,*43
\c:1551625374*58\$IIDBT,012.04,f,003.67,M,001.98,F*24
\c:1551625374*58\$GPGLL,3247.221,N,07954.564,W,180923,A,A*5F
\c:1551625374*58\$IIHDM,189,M*3C
\c:1551625374*58\$IIMWD,139.02,T,151.01,M,07.28,N,03.75,M*45
\c:1551625374*58\$IIMWV,322,R,07.30,N,A*24
\c:1551625375*59\$IIVDR,359.98,T,011.98,M,0.00,N*06
\c:1551625375*59\$IIVHW,177,T,189,M,00.00,N,00.00,K*54
\c:1551625375*59\$IIVWR,047,L,07.46,N,03.84,M,,*25
\c:1551625375*59\$IIVPW,,N,,*1F
\c:1551625375*59\$IIVTG,315.72,T,327.72,M,0.00,N,,,A*60
\c:1551625375*59\$IIMWV,319,T,07.69,N,A*26
\c:1551625375*59\$IIVWT,039,L,07.95,N,04.09,M,,*26
\c:1551625375*59\$IIHDM,190,M*34
\c:1551625376*5A\$IIMWV,318,R,08.12,N,A*22
\c:1551625376*5A\$GPXTE,A,A,,R,N,A*03
\c:1551625376*5A\$GPZDA,180925,03,03,2019,00,*45
\c:1551625376*5A\$IIDBT,012.04,f,003.67,M,001.98,F*24
\c:1551625376*5A\$GPGLL,3247.221,N,07954.564,W,180925,A,A*59
\c:1551625376*5A\$IIHDM,190,M*34
\c:1551625376*5A\$IIMWD,132.83,T,144.82,M,08.20,N,04.22,M*4A
\c:1551625376*5A\$IIMWV,315,T,08.20,N,A*28
\c:1551625377*5B\$IIVDR,359.98,T,011.98,M,0.00,N*06
\c:1551625377*5B\$IIVHW,178,T,190,M,00.00,N,00.00,K*53
\c:1551625377*5B\$IIVWR,041,L,08.35,N,04.30,M,,*20
\c:1551625377*5B\$IIVPW,,N,,*1F
\c:1551625377*5B\$IIVTG,315.72,T,327.72,M,0.00,N,,,A*60
\c:1551625377*5B\$IIMWV,316,R,08.47,N,A*2C
\c:1551625377*5B\$IIVWT,045,L,08.49,N,04.37,M,,*2E
\c:1551625377*5B\$IIHDM,190,M*34
\c:1551625378*54\$IIMWV,315,T,08.49,N,A*27
\c:1551625378*54\$GPXTE,A,A,,R,N,A*03
\c:1551625378*54\$GPZDA,180927,03,03,2019,00,*47
\c:1551625378*54\$IIDBT,012.17,f,003.71,M,002.00,F*23
\c:1551625378*54\$GPGLL,3247.221,N,07954.564,W,180927,A,A*5B
\c:1551625378*54\$IIHDM,189,M*3C
\c:1551625378*54\$IIMWD,134.47,T,146.46,M,08.47,N,04.36,M*4A
\c:1551625378*54\$IIMWV,318,R,08.47,N,A*22
\c:1551625379*55\$IIVDR,359.98,T,011.98,M,0.00,N*06
\c:1551625379*55\$IIVHW,177,T,189,M,00.00,N,00.00,K*54
\c:1551625379*55\$IIVWR,040,L,08.53,N,04.39,M,,*28
\c:1551625379*55\$IIVPW,,N,,*1F
\c:1551625379*55\$IIVTG,315.72,T,327.72,M,0.00,N,,,A*60
\c:1551625379*55\$IIMWV,319,T,08.55,N,A*26
\c:1551625379*55\$IIVWT,042,L,08.57,N,04.41,M,,*27
\c:1551625379*55\$IIHDM,190,M*34
\c:1551625380*53\$IIMWV,318,R,08.59,N,A*2D
\c:1551625380*53\$GPXTE,A,A,,R,N,A*03
\c:1551625380*53\$GPZDA,180929,03,03,2019,00,*49
\c:1551625380*53\$IIDBT,012.07,f,003.68,M,001.98,F*28
\c:1551625380*53\$GPGLL,3247.221,N,07954.564,W,180929,A,A*55
\c:1551625380*53\$IIHDM,190,M*34
\c:1551625380*53\$IIMWD,136.58,T,148.58,M,08.61,N,04.43,M*41
\c:1551625381*52\$IIMWV,318,T,08.66,N,A*27
\c:1551625381*52\$IIVDR,359.98,T,011.98,M,0.00,N*06
\c:1551625381*52\$IIVHW,178,T,190,M,00.00,N,00.00,K*53
\c:1551625381*52\$IIVWR,043,L,08.68,N,04.47,M,,*2A
\c:1551625381*52\$IIVPW,,N,,*1F
\c:1551625381*52\$IIVTG,315.72,T,327.72,M,0.00,N,,,A*60
\c:1551625381*52\$IIMWV,323,R,08.72,N,A*2C
\c:1551625381*52\$IIVWT,037,L,08.70,N,04.48,M,,*29
\c:1551625382*51\$IIHDM,189,M*3C
\c:1551625382*51\$IIMWV,323,T,08.66,N,A*2F
\c:1551625382*51\$GPXTE,A,A,,R,N,A*03
\c:1551625382*51\$GPZDA,180931,03,03,2019,00,*40
\c:1551625382*51\$IIDBT,012.07,f,003.68,M,001.98,F*28
\c:1551625382*51\$GPGLL,3247.221,N,07954.564,W,180931,A,A*5C
\c:1551625382*51\$IIHDM,189,M*3C
\c:1551625383*50\$IIMWD,139.50,T,151.50,M,08.74,N,04.50,M*40
\c:1551625383*50\$IIMWV,325,R,08.96,N,A*20
\c:1551625383*50\$IIVDR,359.98,T,011.98,M,0.00,N*06
\c:1551625383*50\$IIVHW,177,T,189,M,00.00,N,00.00,K*54
\c:1551625383*50\$IIVWR,040,L,09.00,N,04.63,M,,*20
\c:1551625383*50\$IIVPW,,N,,*1F
\c:1551625383*50\$IIVTG,315.72,T,327.72,M,0.00,N,,,A*60
\c:1551625383*50\$IIMWV,321,T,09.00,N,A*2C
\c:1551625383*50\$IIVWT,039,L,09.00,N,04.63,M,,*28
\c:1551625384*57\$IIHDM,189,M*3C
\c:1551625384*57\$IIMWV,317,R,09.00,N,A*2F
\c:1551625384*57\$GPXTE,A,A,,R,N,A*03
\c:1551625384*57\$GPZDA,180933,03,03,2019,00,*42
\c:1551625384*57\$IIDBT,012.04,f,003.67,M,001.98,F*24
\c:1551625384*57\$GPGLL,3247.221,N,07954.564,W,180933,A,A*5E
\c:1551625384*57\$IIHDM,189,M*3C
\c:1551625385*56\$IIMWD,135.76,T,147.76,M,08.66,N,04.46,M*4F
\c:1551625385*56\$IIMWV,322,T,08.55,N,A*2E
\c:1551625385*56\$IIVDR,359.98,T,011.98,M,0.00,N*06
\c:1551625385*56\$IIVHW,177,T,189,M,00.00,N,00.00,K*54
\c:1551625385*56\$IIVWR,037,L,08.47,N,04.36,M,,*22
\c:1551625385*56\$IIVPW,,N,,*1F
\c:1551625385*56\$IIVTG,315.72,T,327.72,M,0.00,N,,,A*60
\c:1551625385*56\$IIMWV,325,R,08.26,N,A*2B
\c:1551625386*55\$IIVWT,035,L,08.22,N,04.23,M,,*21
\c:1551625386*55\$IIHDM,189,M*3C
\c:1551625386*55\$IIMWV,326,T,08.10,N,A*2B
\c:1551625386*55\$GPXTE,A,A,,R,N,A*03
\c:1551625386*55\$GPZDA,180935,03,03,2019,00,*44
\c:1551625386*55\$IIDBT,012.07,f,003.68,M,001.98,F*28
\c:1551625386*55\$GPGLL,3247.221,N,07954.564,W,180935,A,A*58
\c:1551625386*55\$IIHDM,189,M*3C
\c:1551625387*54\$IIMWD,140.72,T,152.72,M,07.89,N,04.06,M*43
\c:1551625387*54\$IIMWV,324,R,07.79,N,A*2F
\c:1551625387*54\$IIVDR,359.98,T,011.98,M,0.00,N*06
\c:1551625387*54\$IIVHW,177,T,189,M,00.00,N,00.00,K*54
\c:1551625387*54\$IIVWR,038,L,07.87,N,04.05,M,,*2E
\c:1551625387*54\$IIVPW,,N,,*1F
\c:1551625387*54\$IIVTG,315.72,T,327.72,M,0.00,N,,,A*60
\c:1551625387*54\$IIMWV,320,T,07.75,N,A*21
\c:1551625388*5B\$IIVWT,040,L,07.75,N,03.99,M,,*28
\c:1551625388*5B\$IIHDM,189,M*3C
\c:1551625388*5B\$IIMWV,325,R,07.69,N,A*2F
\c:1551625388*5B\$GPXTE,A,A,,R,N,A*03
\c:1551625388*5B\$GPZDA,180938,03,03,2019,00,*49
\c:1551625388*5B\$IIDBT,012.04,f,003.67,M,001.98,F*24
\c:1551625388*5B\$GPGLL,3247.221,N,07954.564,W,180938,A,A*55
\c:1551625388*5B\$IIHDM,189,M*3C
\c:1551625389*5A\$IIMWD,136.13,T,148.12,M,07.15,N,03.68,M*42
\c:1551625389*5A\$IIMWV,324,T,07.05,N,A*22
\c:1551625389*5A\$IIVDR,359.98,T,011.98,M,0.00,N*06
\c:1551625389*5A\$IIVHW,177,T,189,M,00.00,N,00.00,K*54
\c:1551625389*5A\$IIVWR,032,L,06.97,N,03.59,M,,*2A
\c:1551625389*5A\$IIVPW,,N,,*1F
\c:1551625389*5A\$IIVTG,315.72,T,327.72,M,0.00,N,,,A*60
\c:1551625389*5A\$IIMWV,318,R,06.80,N,A*27
\c:1551625390*52\$IIVWT,042,L,06.78,N,03.49,M,,*2B
\c:1551625390*52\$IIHDM,189,M*3C
\c:1551625390*52\$IIMWV,321,T,06.76,N,A*22
\c:1551625390*52\$GPXTE,A,A,,R,N,A*03
\c:1551625390*52\$GPZDA,180940,03,03,2019,00,*46
\c:1551625390*52\$IIDBT,012.04,f,003.67,M,001.98,F*24
\c:1551625390*52\$GPGLL,3247.221,N,07954.564,W,180940,A,A*5A
\c:1551625390*52\$IIHDM,189,M*3C
\c:1551625391*53\$IIMWD,135.87,T,147.87,M,06.92,N,03.56,M*4C
\c:1551625391*53\$IIMWV,320,R,06.93,N,A*2E
\c:1551625391*53\$IIVDR,359.98,T,011.98,M,0.00,N*06
\c:1551625391*53\$IIVHW,177,T,189,M,00.00,N,00.00,K*54
\c:1551625391*53\$IIVWR,040,L,06.90,N,03.55,M,,*24
\c:1551625391*53\$IIVPW,,N,,*1F
\c:1551625391*53\$IIVTG,315.72,T,327.72,M,0.00,N,,,A*60
\c:1551625392*50\$IIMWV,322,T,06.99,N,A*20
\c:1551625392*50\$IIVWT,038,L,06.99,N,03.60,M,,*22
\c:1551625392*50\$IIHDM,189,M*3C
\c:1551625392*50\$IIMWV,323,R,07.01,N,A*27
\c:1551625392*50\$GPXTE,A,A,,R,N,A*03
\c:1551625392*50\$GPZDA,180942,03,03,2019,00,*44
\c:1551625392*50\$IIDBT,012.04,f,003.67,M,001.98,F*24
\c:1551625392*50\$GPGLL,3247.221,N,07954.564,W,180942,A,A*58
\c:1551625393*51\$IIHDM,189,M*3C
\c:1551625393*51\$IIMWD,141.63,T,153.63,M,06.99,N,03.60,M*44
\c:1551625393*51\$IIMWV,324,T,07.01,N,A*26
\c:1551625393*51\$IIVDR,359.98,T,011.98,M,0.00,N*06
\c:1551625393*51\$IIVHW,177,T,189,M,00.00,N,00.00,K*54
\c:1551625393*51\$IIVWR,037,L,06.97,N,03.59,M,,*2F
\c:1551625393*51\$IIVPW,,N,,*1F
\c:1551625393*51\$IIVTG,315.72,T,327.72,M,0.00,N,,,A*60
\c:1551625394*56\$IIMWV,323,R,06.70,N,A*20
\c:1551625394*56\$IIVWT,038,L,06.68,N,03.44,M,,*2A
\c:1551625394*56\$IIHDM,189,M*3C
\c:1551625394*56\$IIMWV,326,T,06.60,N,A*22
\c:1551625394*56\$GPXTE,A,A,,R,N,A*03
\c:1551625394*56\$GPZDA,180944,03,03,2019,00,*42
\c:1551625394*56\$IIDBT,012.07,f,003.68,M,001.98,F*28
\c:1551625395*57\$GPGLL,3247.221,N,07954.564,W,180944,A,A*5E
\c:1551625395*57\$IIHDM,189,M*3C
\c:1551625395*57\$IIMWD,137.12,T,149.11,M,06.29,N,03.24,M*46
\c:1551625395*57\$IIMWV,312,R,06.41,N,A*20
\c:1551625395*57\$IIVDR,359.98,T,011.98,M,0.00,N*06
\c:1551625395*57\$IIVHW,177,T,189,M,00.00,N,00.00,K*54
\c:1551625395*57\$IIVWR,048,L,06.51,N,03.35,M,,*27
\c:1551625395*57\$IIVPW,,N,,*1F
\c:1551625396*54\$IIVTG,315.72,T,327.72,M,0.00,N,,,A*60
\c:1551625396*54\$IIMWV,313,T,06.58,N,A*2F
\c:1551625396*54\$IIVWT,047,L,06.58,N,03.39,M,,*2B
\c:1551625396*54\$IIHDM,189,M*3C
\c:1551625396*54\$IIMWV,312,R,06.64,N,A*27
\c:1551625396*54\$GPXTE,A,A,,R,N,A*03
\c:1551625396*54\$GPZDA,180946,03,03,2019,00,*40
\c:1551625396*54\$IIDBT,012.10,f,003.69,M,001.99,F*2E
\c:1551625397*55\$GPGLL,3247.221,N,07954.564,W,180946,A,A*5C
\c:1551625397*55\$IIHDM,189,M*3C
\c:1551625397*55\$IIMWD,140.07,T,152.06,M,06.82,N,03.51,M*4D
\c:1551625397*55\$IIMWV,323,T,06.82,N,A*2B
