\c:1514823722*56\$IIMWV,046,T,09.29,N,A*25
\c:1514823722*56\$GPXTE,A,A,,R,N,A*03
\c:1514823722*56\$GPZDA,162200,01,01,2019,00,*45
\c:1514823722*56\$IIDBT,010.03,f,003.06,M,001.65,F*24
\c:1514823722*56\$GPGLL,3247.221,N,07954.564,W,162201,A,A*58
\c:1514823722*56\$IIHDM,192,M*36
\c:1514823722*56\$IIMWD,214.99,T,226.98,M,08.72,N,04.49,M*40
\c:1514823722*56\$IIMWV,038,R,08.80,N,A*28
\c:1514823722*56\$IIVDR,359.98,T,011.98,M,0.00,N*06
\c:1514823722*56\$IIVHW,179,T,191,M,00.00,N,00.00,K*53
\c:1514823722*56\$IIVWR,042,R,08.66,N,04.46,M,,*3A
\c:1514823723*57\$IIVPW,,N,,*1F
\c:1514823723*57\$IIVTG,012.70,T,024.70,M,0.00,N,,,A*64
\c:1514823723*57\$IIMWV,043,T,08.41,N,A*2F
\c:1514823723*57\$IIVWT,043,R,08.41,N,04.33,M,,*3A
\c:1514823723*57\$IIHDM,190,M*34
\c:1514823723*57\$IIMWV,050,R,08.16,N,A*29
\c:1514823723*57\$GPXTE,A,A,,R,N,A*03
\c:1514823723*57\$GPZDA,162202,01,01,2019,00,*47
\c:1514823724*50\$IIDBT,010.07,f,003.07,M,001.65,F*21
\c:1514823724*50\$GPGLL,3247.221,N,07954.564,W,162203,A,A*5A
\c:1514823724*50\$IIHDM,190,M*34
\c:1514823724*50\$IIMWD,216.70,T,228.70,M,07.81,N,04.02,M*41
\c:1514823724*50\$IIMWV,044,T,07.73,N,A*26
\c:1514823724*50\$IIVDR,359.98,T,011.98,M,0.00,N*06
\c:1514823724*50\$IIVHW,178,T,190,M,00.00,N,00.00,K*53
\c:1514823725*51\$IIVWR,046,R,07.73,N,03.98,M,,*31
\c:1514823725*51\$IIVPW,,N,,*1F
\c:1514823725*51\$IIVTG,012.70,T,024.70,M,0.02,N,,,A*66
\c:1514823725*51\$IIMWV,048,R,07.34,N,A*2F
\c:1514823725*51\$IIVWT,048,R,07.30,N,03.76,M,,*3E
\c:1514823725*51\$IIHDM,191,M*35
\c:1514823725*51\$IIMWV,039,T,07.09,N,A*21
\c:1514823725*51\$GPXTE,A,A,,R,N,A*03
\c:1514823726*52\$GPZDA,162204,01,01,2019,00,*41
\c:1514823726*52\$IIDBT,010.17,f,003.10,M,001.67,F*24
\c:1514823726*52\$GPGLL,3247.221,N,07954.564,W,162205,A,A*5C
\c:1514823726*52\$GPGGA,162206.000,3247.1952,N,07954.5956,W,1,8,1.06,161.5,M,-32.2,M,,*60
\c:1514823726*52\$GPGLL,3247.1952,N,07954.5956,W,162206.000,A,A*47
\c:1514823726*52\$GPRMC,162206.000,A,3247.1952,N,07954.5956,W,0.14,327.05,010119,,,A*7E
\c:1514823726*52\$IIHDM,192,M*36
\c:1514823726*52\$IIMWD,202.47,T,214.47,M,06.43,N,03.31,M*43
\c:1514823726*52\$IIMWV,357,R,06.00,N,A*24
\c:1514823726*52\$IIVDR,012.70,T,024.69,M,0.02,N*06
\c:1514823726*52\!AIVDM,1,1,,A,15MwolkP00rB2avBh<M6JBR<0@3q,0*0C
\c:1514823726*52\$IIVHW,179,T,191,M,00.00,N,00.00,K*53
\c:1514823727*53\$IIVWR,009,L,06.47,N,03.33,M,,*23
\c:1514823727*53\!AIVDM,1,1,,A,B52`FV@0PfTT@OTcuJJLOwS5oP06,0*33
\c:1514823727*53\$IIVPW,,N,,*1F
\c:1514823727*53\$IIVTG,012.70,T,024.70,M,0.00,N,,,A*64
\c:1514823727*53\!AIVDM,1,1,,B,15NSt?0000rB3;<BjJEThT<@0@4>,0*3A
\c:1514823727*53\$GPGGA,162207.000,3247.1952,N,07954.5956,W,1,8,1.06,161.5,M,-32.2,M,,*61
\c:1514823727*53\$GPGLL,3247.1952,N,07954.5956,W,162207.000,A,A*46
\c:1514823727*53\$GPGSA,A,3,10,20,21,32,15,14,12,24,,,,,1.36,1.06,0.85*09
\c:1514823727*53\$GPGSV,3,1,10,20,76,072,32,10,62,338,25,32,43,279,29,24,37,049,32*78
\c:1514823727*53\$GPGSV,3,2,10,21,36,187,29,14,28,264,28,12,15,106,30,15,12,067,26*7E
\c:1514823727*53\$GPGSV,3,3,10,18,03,324,20,44,,,27*40
\c:1514823727*53\$GPRMC,162207.000,A,3247.1952,N,07954.5956,W,0.23,327.05,010119,,,A*7B
\c:1514823727*53\$IIMWV,026,T,06.39,N,A*2D
\c:1514823727*53\$IIVWT,026,R,06.39,N,03.29,M,,*34
\c:1514823727*53\$IIHDM,191,M*35
\c:1514823727*53\$IIMWV,024,R,06.18,N,A*2A
\c:1514823727*53\$GPXTE,A,A,,R,N,A*03
\c:1514823728*5C\$GPZDA,162206,01,01,2019,00,*43
\c:1514823728*5C\!AIVDM,1,1,,A,H52Rdi4T1=300000000000200500,0*5E
\c:1514823728*5C\$IIDBT,009.90,f,003.02,M,001.63,F*24
\c:1514823728*5C\$GPGLL,3247.221,N,07954.564,W,162207,A,A*5E
\c:1514823728*5C\$GPGGA,162208.000,3247.1952,N,07954.5955,W,1,8,1.06,161.5,M,-32.2,M,,*6D
\c:1514823728*5C\$GPGLL,3247.1952,N,07954.5955,W,162208.000,A,A*4A
\c:1514823728*5C\$GPRMC,162208.000,A,3247.1952,N,07954.5955,W,0.29,327.05,010119,,,A*7D
\c:1514823728*5C\$IIHDM,191,M*35
\c:1514823728*5C\$IIMWD,223.91,T,235.90,M,06.78,N,03.49,M*45
\c:1514823728*5C\$IIMWV,045,T,06.78,N,A*2D
\c:1514823728*5C\$IIVDR,359.98,T,011.98,M,0.00,N*06
\c:1514823728*5C\$IIVHW,179,T,191,M,00.00,N,00.00,K*53
\c:1514823729*5D\$IIVWR,032,R,07.46,N,03.84,M,,*39
\c:1514823729*5D\$IIVPW,,N,,*1F
\c:1514823729*5D\$IIVTG,012.70,T,024.70,M,0.00,N,,,A*64
\c:1514823729*5D\$GPGGA,162209.000,3247.1953,N,07954.5955,W,1,8,1.06,161.5,M,-32.2,M,,*6D
\c:1514823729*5D\$GPGLL,3247.1953,N,07954.5955,W,162209.000,A,A*4A
\c:1514823729*5D\$GPRMC,162209.000,A,3247.1953,N,07954.5955,W,0.25,327.05,010119,,,A*71
\c:1514823729*5D\$IIMWV,035,R,08.53,N,A*2B
\c:1514823729*5D\!AIVDM,1,1,,A,15NQ3t?P00JB0NvBhFHA??vB085R,0*2B
\c:1514823729*5D\$IIVWT,035,R,08.51,N,04.38,M,,*31
\c:1514823729*5D\!AIVDM,1,1,,B,35NO6gPPBdrB:`TBh=OnG5>B20W0,0*36
\c:1514823729*5D\$IIHDM,191,M*35
\c:1514823729*5D\!AIVDM,1,1,,B,15NTcF?000JB0RNBk<@I1WFD085a,0*11
\c:1514823729*5D\$IIMWV,034,T,08.84,N,A*26
\c:1514823729*5D\$GPXTE,A,A,,R,N,A*03
\c:1514823730*55\$GPZDA,162208,01,01,2019,00,*4D
\c:1514823730*55\$IIDBT,010.26,f,003.13,M,001.69,F*2B
\c:1514823730*55\$GPGGA,162210.000,3247.1954,N,07954.5954,W,1,8,1.06,161.4,M,-32.2,M,,*62
\c:1514823730*55\$GPGLL,3247.1954,N,07954.5954,W,162210.000,A,A*44
\c:1514823730*55\$GPRMC,162210.000,A,3247.1954,N,07954.5954,W,0.21,327.05,010119,,,A*7B
\c:1514823730*55\$GPGLL,3247.221,N,07954.564,W,162209,A,A*50
\c:1514823730*55\$IIHDM,192,M*36
\c:1514823730*55\$IIMWD,208.03,T,220.03,M,09.38,N,04.83,M*43
\c:1514823730*55\$IIMWV,027,R,09.42,N,A*29
\c:1514823730*55\$IIVDR,359.98,T,011.98,M,0.00,N*06
\c:1514823731*54\$IIVHW,181,T,193,M,00.00,N,00.00,K*56
\c:1514823731*54\$IIVWR,020,R,09.42,N,04.85,M,,*36
\c:1514823731*54\$IIVPW,,N,,*1F
\c:1514823731*54\$GPGGA,162211.000,3247.1954,N,07954.5954,W,1,8,1.06,161.4,M,-32.2,M,,*63
\c:1514823731*54\$GPGLL,3247.1954,N,07954.5954,W,162211.000,A,A*45
\c:1514823731*54\$IIVTG,117.46,T,129.46,M,0.02,N,,,A*6E
\c:1514823731*54\$GPRMC,162211.000,A,3247.1954,N,07954.5954,W,0.15,327.05,010119,,,A*7D
\c:1514823731*54\!AIVDM,2,1,6,A,55Ph;0426l2aM@@R220tdD4pu>0EQ0hu8E:2221O2`h4877@N<Pj0DS1Dkk`,0*55
\c:1514823731*54\!AIVDM,2,2,6,A,4hp88888880,2*36
\c:1514823731*54\$IIMWV,024,T,09.25,N,A*2D
\c:1514823731*54\$IIVWT,024,R,09.25,N,04.76,M,,*39
\c:1514823731*54\$IIHDM,193,M*37
\c:1514823731*54\$IIMWV,021,R,09.19,N,A*21
\c:1514823732*57\$GPXTE,A,A,,R,N,A*03
\c:1514823732*57\$GPZDA,162211,01,01,2019,00,*45
\c:1514823732*57\!AIVDM,1,1,,A,15NN>90P0UrAu92BkPnrUOvH2873,0*22
\c:1514823732*57\$IIDBT,009.97,f,003.04,M,001.64,F*22
\c:1514823732*57\!AIVDM,1,1,,A,15NO6gPPBkrB:afBh=86D5<H261H,0*37
\c:1514823732*57\$GPGGA,162212.000,3247.1954,N,07954.5953,W,1,8,1.06,161.4,M,-32.2,M,,*67
\c:1514823732*57\$GPGLL,3247.1954,N,07954.5953,W,162212.000,A,A*41
\c:1514823732*57\$GPGSA,A,3,10,20,21,32,15,14,12,24,,,,,1.36,1.06,0.85*09
\c:1514823732*57\$GPGSV,3,1,10,20,76,072,33,10,62,338,30,32,43,279,35,24,37,049,23*70
\c:1514823732*57\$GPGSV,3,2,10,21,36,187,29,14,28,264,27,12,15,106,32,15,12,067,30*74
\c:1514823732*57\$GPGSV,3,3,10,18,03,324,23,44,,,33*46
\c:1514823732*57\$GPGLL,3247.221,N,07954.564,W,162211,A,A*59
\c:1514823732*57\$GPRMC,162212.000,A,3247.1954,N,07954.5953,W,0.03,327.05,010119,,,A*7E
\c:1514823732*57\$IIHDM,193,M*37
\c:1514823732*57\$IIMWD,202.28,T,214.27,M,09.44,N,04.86,M*4F
\c:1514823732*57\$IIMWV,022,T,09.44,N,A*2C
\c:1514823732*57\$IIVDR,117.45,T,129.45,M,0.02,N*06
\c:1514823733*56\$IIVHW,180,T,192,M,00.00,N,00.00,K*56
\c:1514823733*56\!AIVDM,1,1,,B,15NO1FPP00JB5;PBjuK8RgvJ20SU,0*22
\c:1514823733*56\$IIVWR,025,R,09.46,N,04.87,M,,*35
\c:1514823733*56\$IIVPW,,N,,*1F
\c:1514823733*56\$GPGGA,162213.000,3247.1954,N,07954.5953,W,1,8,1.06,161.4,M,-32.2,M,,*66
\c:1514823733*56\$GPGLL,3247.1954,N,07954.5953,W,162213.000,A,A*40
\c:1514823733*56\$GPRMC,162213.000,A,3247.1954,N,07954.5953,W,0.08,327.05,010119,,,A*74
\c:1514823733*56\$IIVTG,117.46,T,129.46,M,0.00,N,,,A*6C
\c:1514823733*56\$IIMWV,022,R,09.38,N,A*21
\c:1514823733*56\!AIVDM,1,1,,A,15NQcFg000JB0KBBk;`<JibL087q,0*73
\c:1514823733*56\!AIVDM,1,1,,B,15NJ<GPP00rB@GrBgVMLnOvL2<0`,0*2C
\c:1514823733*56\$IIVWT,024,R,09.44,N,04.86,M,,*31
\c:1514823733*56\$IIHDM,191,M*35
\c:1514823733*56\!AIVDM,1,1,,B,B5NWF3000NTP@O4d4nL>7wVUoP06,0*49
\c:1514823733*56\$IIMWV,026,T,09.42,N,A*2E
\c:1514823733*56\!AIVDM,1,1,,A,15Me6`3PAGrBr>>BeG5dB9RL0887,0*28
\c:1514823734*51\$GPXTE,A,A,,R,N,A*03
\c:1514823734*51\$GPZDA,162213,01,01,2019,00,*47
\c:1514823734*51\!AIVDM,1,1,,A,15Nhjb0P00JAvP6BkG5qcgvN0D1V,0*72
\c:1514823734*51\$GPGGA,162214.000,3247.1954,N,07954.5953,W,1,8,1.06,161.4,M,-32.2,M,,*61
\c:1514823734*51\$IIDBT,010.07,f,003.07,M,001.65,F*21
\c:1514823734*51\$GPGLL,3247.1954,N,07954.5953,W,162214.000,A,A*47
\c:1514823734*51\$GPRMC,162214.000,A,3247.1954,N,07954.5953,W,0.14,327.05,010119,,,A*7E
\c:1514823734*51\$GPGLL,3247.221,N,07954.564,W,162213,A,A*5B
\c:1514823734*51\!AIVDM,1,1,,B,15Mo<hPP00JB0BtBk:A`MwvN261H,0*14
\c:1514823734*51\$IIHDM,192,M*36
\c:1514823734*51\$IIMWD,209.87,T,221.86,M,09.42,N,04.85,M*49
\c:1514823734*51\$IIMWV,030,R,09.46,N,A*2B
\c:1514823735*50\$IIVDR,359.98,T,011.98,M,0.00,N*06
\c:1514823735*50\$IIVHW,180,T,192,M,00.00,N,00.00,K*56
\c:1514823735*50\$IIVWR,028,R,09.19,N,04.73,M,,*39
\c:1514823735*50\$GPGGA,162215.000,3247.1954,N,07954.5953,W,1,8,1.06,161.4,M,-32.2,M,,*60
\c:1514823735*50\$IIVPW,,N,,*1F
\c:1514823735*50\$GPGLL,3247.1954,N,07954.5953,W,162215.000,A,A*46
\c:1514823735*50\!AIVDM,1,1,,A,15Mw<Q?00trC4cHBdgsDd3fP0D1L,0*0E
\c:1514823735*50\$GPRMC,162215.000,A,3247.1954,N,07954.5953,W,0.13,327.05,010119,,,A*78
\c:1514823735*50\$IIVTG,117.46,T,129.46,M,0.00,N,,,A*6C
\c:1514823735*50\$IIMWV,022,T,09.03,N,A*2F
\c:1514823735*50\!AIVDM,1,1,,A,35NO6gP033rB:dFBh<EVA5<N20TP,0*3D
\c:1514823735*50\!AIVDM,1,1,,A,H5NfmRQH4hP4hh4000000000000,2*5B
\c:1514823735*50\$IIVWT,024,R,09.01,N,04.64,M,,*3C
\c:1514823735*50\$IIHDM,192,M*36
\c:1514823736*53\$IIMWV,024,R,08.82,N,A*27
\c:1514823736*53\$GPXTE,A,A,,R,N,A*03
\c:1514823736*53\$GPZDA,162215,01,01,2019,00,*41
\c:1514823736*53\$GPGGA,162216.000,3247.1954,N,07954.5952,W,1,8,1.06,161.3,M,-32.2,M,,*65
\c:1514823736*53\$GPGLL,3247.1954,N,07954.5952,W,162216.000,A,A*44
\c:1514823736*53\$GPRMC,162216.000,A,3247.1954,N,07954.5952,W,0.11,327.05,010119,,,A*78
\c:1514823736*53\$IIDBT,010.07,f,003.07,M,001.65,F*21
\c:1514823736*53\!AIVDM,1,1,,B,15MwolkP00rB2avBh<M=wjRN00S@,0*42
\c:1514823736*53\$GPGLL,3247.221,N,07954.564,W,162215,A,A*5D
\c:1514823736*53\$IIHDM,192,M*36
\c:1514823736*53\$IIMWD,199.75,T,211.75,M,08.53,N,04.39,M*47
\c:1514823736*53\$IIMWV,020,T,08.53,N,A*29
\c:1514823737*52\$IIVDR,359.98,T,011.98,M,0.00,N*06
\c:1514823737*52\$IIVHW,180,T,192,M,00.00,N,00.00,K*56
\c:1514823737*52\$IIVWR,021,R,08.66,N,04.46,M,,*3F
\c:1514823737*52\$GPGGA,162217.000,3247.1954,N,07954.5952,W,1,8,1.06,161.3,M,-32.2,M,,*64
\c:1514823737*52\$GPGLL,3247.1954,N,07954.5952,W,162217.000,A,A*45
\c:1514823737*52\$GPGSA,A,3,10,20,21,32,15,14,12,24,,,,,1.36,1.06,0.85*09
\c:1514823737*52\$GPGSV,3,1,10,20,76,072,32,10,62,338,37,32,43,280,36,24,37,049,23*73
\c:1514823737*52\$GPGSV,3,2,10,21,36,187,36,14,28,264,29,12,15,106,33,15,12,067,32*77
\c:1514823737*52\$GPGSV,3,3,10,18,03,324,23,44,,,36*43
\c:1514823737*52\$IIVPW,,N,,*1F
\c:1514823737*52\$GPRMC,162217.000,A,3247.1954,N,07954.5952,W,0.04,327.05,010119,,,A*7D
\c:1514823737*52\$IIVTG,117.46,T,129.46,M,0.00,N,,,A*6C
\c:1514823737*52\$IIMWV,028,R,08.80,N,A*29
\c:1514823737*52\$IIVWT,030,R,08.78,N,04.52,M,,*33
\c:1514823737*52\$IIHDM,191,M*35
\c:1514823738*5D\$IIMWV,023,T,08.88,N,A*2C
\c:1514823738*5D\$GPXTE,A,A,,R,N,A*03
\c:1514823738*5D\$GPZDA,162217,01,01,2019,00,*43
\c:1514823738*5D\$GPGGA,162218.000,3247.1954,N,07954.5952,W,1,8,1.06,161.3,M,-32.2,M,,*6B
\c:1514823738*5D\$GPGLL,3247.1954,N,07954.5952,W,162218.000,A,A*4A
\c:1514823738*5D\$GPRMC,162218.000,A,3247.1954,N,07954.5952,W,0.06,327.05,010119,,,A*70
\c:1514823738*5D\$IIDBT,010.03,f,003.06,M,001.65,F*24
\c:1514823738*5D\$GPGLL,3247.221,N,07954.564,W,162217,A,A*5F
\c:1514823738*5D\!AIVDM,1,1,,A,15NTcF?000JB0RPBk<@cwGFV0@:q,0*05
\c:1514823738*5D\$IIHDM,191,M*35
\c:1514823738*5D\$IIMWD,199.36,T,211.36,M,09.48,N,04.88,M*46
\c:1514823738*5D\$IIMWV,020,R,09.52,N,A*2F
\c:1514823739*5C\$IIVDR,359.98,T,011.98,M,0.00,N*06
\c:1514823739*5C\$IIVHW,179,T,191,M,00.00,N,00.00,K*53
\c:1514823739*5C\$IIVWR,029,R,09.46,N,04.87,M,,*39
\c:1514823739*5C\$GPGGA,162219.000,3247.1954,N,07954.5951,W,1,8,1.06,161.3,M,-32.2,M,,*69
\c:1514823739*5C\$GPGLL,3247.1954,N,07954.5951,W,162219.000,A,A*48
\c:1514823739*5C\$GPRMC,162219.000,A,3247.1954,N,07954.5951,W,0.07,327.05,010119,,,A*73
\c:1514823739*5C\$IIVPW,,N,,*1F
\c:1514823739*5C\$IIVTG,117.46,T,129.46,M,0.02,N,,,A*6E
\c:1514823739*5C\$IIMWV,020,T,09.15,N,A*2A
\c:1514823739*5C\$IIVWT,015,R,09.36,N,04.82,M,,*32
\c:1514823739*5C\$IIHDM,191,M*35
\c:1514823740*52\$IIMWV,024,R,09.33,N,A*2C
\c:1514823740*52\$GPXTE,A,A,,R,N,A*03
\c:1514823740*52\$GPGGA,162220.000,3247.1954,N,07954.5951,W,1,8,1.06,161.3,M,-32.2,M,,*63
\c:1514823740*52\$GPZDA,162219,01,01,2019,00,*4D
\c:1514823740*52\$GPGLL,3247.1954,N,07954.5951,W,162220.000,A,A*42
\c:1514823740*52\$GPRMC,162220.000,A,3247.1954,N,07954.5951,W,0.21,327.05,010119,,,A*7D
\c:1514823740*52\$IIDBT,010.13,f,003.09,M,001.67,F*28
\c:1514823740*52\$GPGLL,3247.221,N,07954.564,W,162219,A,A*51
\c:1514823740*52\$IIHDM,191,M*35
\c:1514823740*52\$IIMWD,207.98,T,219.97,M,09.17,N,04.72,M*4A
\c:1514823741*53\$IIMWV,028,T,09.17,N,A*20
\c:1514823741*53\$IIVDR,117.45,T,129.45,M,0.02,N*06
\c:1514823741*53\$IIVHW,180,T,192,M,00.00,N,00.00,K*56
\c:1514823741*53\$GPGGA,162221.000,3247.1953,N,07954.5951,W,1,8,1.06,161.3,M,-32.2,M,,*65
\c:1514823741*53\$GPGLL,3247.1953,N,07954.5951,W,162221.000,A,A*44
\c:1514823741*53\$GPRMC,162221.000,A,3247.1953,N,07954.5951,W,0.20,327.05,010119,,,A*7A
\c:1514823741*53\$IIVWR,026,R,09.29,N,04.78,M,,*3F
\c:1514823741*53\$IIVPW,,N,,*1F
\c:1514823741*53\$IIVTG,117.46,T,129.46,M,0.02,N,,,A*6E
\c:1514823741*53\$IIMWV,026,R,09.38,N,A*25
\c:1514823741*53\$IIVWT,027,R,09.38,N,04.83,M,,*3C
\c:1514823741*53\!AIVDM,2,1,7,B,55Ph;0426l2aM@@R220tdD4pu>0EQ0hu8E:2221O2`h4877@N<Pj0DS1Dkk`,0*57
\c:1514823741*53\!AIVDM,2,2,7,B,4hp88888888,2*3C
\c:1514823742*50\$IIHDM,192,M*36
\c:1514823742*50\$IIMWV,027,T,09.42,N,A*2F
\c:1514823742*50\$GPXTE,A,A,,R,N,A*03
\c:1514823742*50\$GPGGA,162222.000,3247.1953,N,07954.5950,W,1,8,1.06,161.3,M,-32.2,M,,*67
\c:1514823742*50\$GPGLL,3247.1953,N,07954.5950,W,162222.000,A,A*46
\c:1514823742*50\$GPZDA,162221,01,01,2019,00,*46
\c:1514823742*50\$GPGSA,A,3,10,20,21,32,15,14,12,24,,,,,1.36,1.06,0.85*09
\c:1514823742*50\$GPGSV,3,1,10,20,76,072,32,10,62,338,30,32,43,280,28,24,37,049,32*7B
\c:1514823742*50\$GPGSV,3,2,10,21,36,187,36,14,28,264,28,12,15,106,34,15,12,067,31*72
\c:1514823742*50\$GPGSV,3,3,10,18,03,324,20,44,,,33*45
\c:1514823742*50\$GPRMC,162222.000,A,3247.1953,N,07954.5950,W,0.17,327.05,010119,,,A*7C
\c:1514823742*50\$IIDBT,009.94,f,003.03,M,001.63,F*21
\c:1514823742*50\$GPGLL,3247.221,N,07954.564,W,162221,A,A*5A
\c:1514823742*50\$IIHDM,192,M*36
\c:1514823742*50\$IIMWD,208.65,T,220.65,M,09.52,N,04.90,M*4D
\c:1514823743*51\$IIMWV,029,R,09.56,N,A*22
\c:1514823743*51\$IIVDR,117.45,T,129.45,M,0.02,N*06
\c:1514823743*51\$IIVHW,180,T,192,M,00.00,N,00.00,K*56
\c:1514823743*51\$GPGGA,162223.000,3247.1953,N,07954.5950,W,1,8,1.06,161.2,M,-32.2,M,,*67
\c:1514823743*51\$GPGLL,3247.1953,N,07954.5950,W,162223.000,A,A*47
\c:1514823743*51\$GPRMC,162223.000,A,3247.1953,N,07954.5950,W,0.14,327.05,010119,,,A*7E
\c:1514823743*51\$IIVWR,031,R,09.69,N,04.99,M,,*32
\c:1514823743*51\!AIVDM,1,1,,A,15NJ<GPP00rB@GfBgVMto?vh28=e,0*5A
\c:1514823743*51\$IIVPW,,N,,*1F
\c:1514823743*51\$IIVTG,117.46,T,129.46,M,0.00,N,,,A*6C
\c:1514823743*51\!AIVDM,1,1,,B,15NOnw0P0;JB280Bm8Q=Awvh00RV,0*37
\c:1514823743*51\$IIMWV,032,T,09.68,N,A*23
\c:1514823743*51\$IIVWT,032,R,09.73,N,05.01,M,,*3C
\c:1514823744*56\$IIHDM,191,M*35
\c:1514823744*56\$IIMWV,032,R,09.81,N,A*22
\c:1514823744*56\!AIVDM,1,1,,A,15NO6gPPCMrB:jVBh:S6>58f2<0t,0*20
\c:1514823744*56\!AIVDM,1,1,,A,15NO1FPP00JB5;PBjuJHSgvh2<0`,0*29
\c:1514823744*56\!AIVDM,1,1,,B,15Me6`3PAHrBr7NBeGft=9Nh00Ra,0*6D
\c:1514823744*56\$GPXTE,A,A,,R,N,A*03
\c:1514823744*56\$GPGGA,162224.000,3247.1953,N,07954.5949,W,1,8,1.06,161.2,M,-32.2,M,,*68
\c:1514823744*56\$GPGLL,3247.1953,N,07954.5949,W,162224.000,A,A*48
\c:1514823744*56\$GPRMC,162224.000,A,3247.1953,N,07954.5949,W,0.11,327.05,010119,,,A*74
\c:1514823744*56\$GPZDA,162223,01,01,2019,00,*44
\c:1514823744*56\!AIVDM,1,1,,B,85N4lIQKf<<A<E>S7kB@3ePH3`Q:gJIbj>l6ODewRlvc1<wa>OmS,0*18
\c:1514823744*56\$IIDBT,010.17,f,003.10,M,001.67,F*24
\c:1514823744*56\$GPGLL,3247.221,N,07954.564,W,162223,A,A*58
\c:1514823744*56\$IIHDM,192,M*36
\c:1546359745*56\$IIMWD,211.22,T,223.22,M,09.95,N,05.12,M*46
\c:1546359745*56\!AIVDM,1,1,,A,15Mo<hPP00JB0C2Bk:@HNOvj20Rt,0*3F
\c:1546359745*56\$IIMWV,031,T,09.95,N,A*22
\c:1546359745*56\$IIVDR,359.98,T,011.98,M,0.00,N*06
\c:1546359745*56\$GPGGA,162225.000,3247.1953,N,07954.5949,W,1,8,1.06,161.2,M,-32.2,M,,*69
\c:1546359745*56\$IIVHW,180,T,192,M,00.00,N,00.00,K*56
\c:1546359745*56\$GPGLL,3247.1953,N,07954.5949,W,162225.000,A,A*49
\c:1546359745*56\$GPRMC,162225.000,A,3247.1953,N,07954.5949,W,0.18,327.05,010119,,,A*7C
\c:1546359745*56\$IIVWR,026,R,09.95,N,05.12,M,,*35
\c:1546359745*56\$IIVPW,,N,,*1F
\c:1546359745*56\$IIVTG,117.46,T,129.46,M,0.02,N,,,A*6E
\c:1546359745*56\$IIMWV,028,R,09.85,N,A*2D
\c:1546359746*55\$IIVWT,028,R,09.83,N,05.06,M,,*3F
\c:1546359746*55\$IIHDM,193,M*37
\c:1546359746*55\$IIMWV,028,T,09.77,N,A*26
\c:1546359746*55\$GPXTE,A,A,,R,N,A*03
\c:1546359746*55\$GPGGA,162226.000,3247.1953,N,07954.5948,W,1,8,1.06,161.2,M,-32.2,M,,*6B
\c:1546359746*55\$GPGLL,3247.1953,N,07954.5948,W,162226.000,A,A*4B
\c:1546359746*55\$GPRMC,162226.000,A,3247.1953,N,07954.5948,W,0.21,327.05,010119,,,A*74
\c:1546359746*55\$GPZDA,162225,01,01,2019,00,*42
\c:1546359746*55\$IIDBT,009.97,f,003.04,M,001.64,F*22
\c:1546359746*55\$GPGLL,3247.221,N,07954.564,W,162225,A,A*5E
\c:1546359746*55\$IIHDM,193,M*37
\c:1546359747*54\$IIMWD,210.84,T,222.84,M,09.77,N,05.03,M*4A
\c:1546359747*54\$IIMWV,030,R,09.81,N,A*20
\c:1546359747*54\!AIVDM,1,1,,A,15MwolkP00rB2avBh<M=bjRl0@?o,0*45
\c:1546359747*54\$IIVDR,117.45,T,129.45,M,0.02,N*06
\c:1546359747*54\$GPGGA,162227.000,3247.1953,N,07954.5948,W,1,8,1.06,161.2,M,-32.2,M,,*6A
\c:1546359747*54\$GPGLL,3247.1953,N,07954.5948,W,162227.000,A,A*4A
\c:1546359747*54\$GPGSA,A,3,10,20,21,32,15,14,12,24,,,,,1.36,1.06,0.85*09
\c:1546359747*54\$GPGSV,3,1,10,20,76,072,31,10,62,339,33,32,43,280,38,24,37,049,31*78
\c:1546359747*54\$IIVHW,181,T,193,M,00.00,N,00.00,K*56
\c:1546359747*54\$GPGSV,3,2,10,21,36,187,35,14,28,264,29,12,15,106,32,15,12,067,30*77
\c:1546359747*54\$GPGSV,3,3,10,18,03,324,22,44,,,33*47
\c:1546359747*54\$GPRMC,162227.000,A,3247.1953,N,07954.5948,W,0.20,327.05,010119,,,A*74
\c:1546359747*54\$IIVWR,029,R,09.95,N,05.12,M,,*3A
\c:1546359747*54\!AIVDM,1,1,,A,35NO6gPPCLrB:mpBh9eV;U8n20V0,0*14
\c:1546359747*54\$IIVPW,,N,,*1F
\c:1546359747*54\$IIVTG,117.46,T,129.46,M,0.02,N,,,A*6E
\c:1546359747*54\$IIMWV,033,T,09.89,N,A*2D
\c:1546359748*5B\$IIVWT,033,R,09.89,N,05.09,M,,*30
\c:1546359748*5B\$IIHDM,193,M*37
\c:1546359748*5B\$IIMWV,033,R,09.85,N,A*27
\c:1546359748*5B\$GPGGA,162228.000,3247.1953,N,07954.5947,W,1,8,1.06,161.2,M,-32.2,M,,*6A
\c:1546359748*5B\$GPGLL,3247.1953,N,07954.5947,W,162228.000,A,A*4A
\c:1546359748*5B\!AIVDM,1,1,,B,85Ojq81Kf6s<uq6Le==fpmJ=8r0CVT1Gw``Ssr<jj?Fv?gHgJ;J`,0*41
\c:1546359748*5B\$GPRMC,162228.000,A,3247.1953,N,07954.5947,W,0.13,327.05,010119,,,A*74
\c:1546359748*5B\$GPXTE,A,A,,R,N,A*03
\c:1546359748*5B\$GPZDA,162227,01,01,2019,00,*40
\c:1546359748*5B\$IIDBT,010.17,f,003.10,M,001.67,F*24
\c:1546359748*5B\$GPGLL,3247.221,N,07954.564,W,162227,A,A*5C
\c:1546359749*5A\$IIHDM,193,M*37
\c:1546359749*5A\$IIMWD,211.67,T,223.67,M,09.77,N,05.03,M*4A
\c:1546359749*5A\$IIMWV,032,T,09.81,N,A*24
\c:1546359749*5A\$IIVDR,117.45,T,129.45,M,0.02,N*06
\c:1546359749*5A\$GPGGA,162229.000,3247.1952,N,07954.5947,W,1,8,1.06,161.1,M,-32.2,M,,*69
\c:1546359749*5A\$GPGLL,3247.1952,N,07954.5947,W,162229.000,A,A*4A
\c:1546359749*5A\$GPRMC,162229.000,A,3247.1952,N,07954.5947,W,0.16,327.05,010119,,,A*71
\c:1546359749*5A\!AIVDM,1,1,,B,B5Nutd0006TP:V4d5OUL?wf5kP06,0*02
\c:1546359749*5A\$IIVHW,181,T,193,M,00.00,N,00.00,K*56
\c:1546359749*5A\$IIVWR,032,R,09.71,N,05.00,M,,*39
