\c:1546733839*5A\$GPGLL,,,,,,V,A*6B
\c:1546733839*5A\$IIHDM,195,M*31
\c:1546733839*5A\$IIMWD,176.00,T,187.99,M,10.90,N,05.61,M*40
\c:1546733839*5A\$IIMWV,351,T,10.98,N,A*22
\c:1546733839*5A\$IIVDR,,,,,,N*0E
\c:1546733839*5A\$IIVHW,183,T,195,M,00.00,N,00.00,K*52
\c:1546733839*5A\$IIVWR,004,L,11.13,N,05.73,M,,*2B
\c:1546733839*5A\$IIVPW,,N,,*1F
\c:1546733840*54\$IIVTG,001.40,T,013.39,M,,N,,,A*72
\c:1546733840*54\$IIMWV,356,R,11.17,N,A*25
\c:1546733840*54\$IIVWT,004,L,11.13,N,05.73,M,,*2D
\c:1546733840*54\$IIHDM,195,M*31
\c:1546733840*54\$IIMWV,356,T,11.15,N,A*21
\c:1546733840*54\$GPXTE,A,A,,R,N,A*03
\c:1546733840*54\$GPZDA,,00,00,1992,16,*4C
\c:1546733840*54\$IIDBT,014.53,f,004.43,M,002.39,F*29
\c:1546733841*55\$GPGLL,,,,,,V,A*6B
\c:1546733841*55\$IIHDM,195,M*31
\c:1546733841*55\$IIMWD,175.59,T,187.59,M,11.17,N,05.75,M*48
\c:1546733841*55\$IIMWV,352,R,11.27,N,A*22
\c:1546733841*55\$IIVDR,,,,,,N*0E
\c:1546733841*55\$IIVHW,183,T,195,M,00.00,N,00.00,K*52
\c:1546733841*55\$IIVWR,006,L,11.35,N,05.84,M,,*25
\c:1546733841*55\$IIVPW,,N,,*1F
\c:1546733842*56\$IIVTG,001.40,T,013.39,M,,N,,,A*72
\c:1546733842*56\$IIMWV,353,T,11.48,N,A*2C
\c:1546733842*56\$IIVWT,007,L,11.48,N,05.91,M,,*2C
\c:1546733842*56\$IIHDM,195,M*31
\c:1546733842*56\$IIMWV,355,R,11.58,N,A*2D
\c:1546733842*56\$GPXTE,A,A,,R,N,A*03
\c:1546733842*56\$GPZDA,,00,00,1992,16,*4C
\c:1546733843*57\$IIDBT,014.59,f,004.45,M,002.40,F*2B
\c:1546733843*57\$GPGLL,,,,,,V,A*6B
\c:1546733843*57\$IIHDM,195,M*31
\c:1546733843*57\$IIMWD,175.60,T,187.60,M,11.56,N,05.95,M*43
\c:1546733843*57\$IIMWV,354,T,11.48,N,A*2B
\c:1546733843*57\$IIVDR,,,,,,N*0E
\c:1546733843*57\$IIVHW,183,T,195,M,00.00,N,00.00,K*52
\c:1546733843*57\$IIVWR,005,L,11.46,N,05.90,M,,*27
\c:1546733844*50\$IIVPW,,N,,*1F
\c:1546733844*50\$IIVTG,001.40,T,013.39,M,,N,,,A*72
\c:1546733844*50\$IIMWV,353,R,11.35,N,A*20
\c:1546733844*50\$IIVWT,007,L,11.31,N,05.82,M,,*20
\c:1546733844*50\$IIHDM,195,M*31
\c:1546733844*50\$IIMWV,355,T,11.23,N,A*27
\c:1546733844*50\$GPXTE,A,A,,R,N,A*03
\c:1546733844*50\$GPZDA,000011,31,12,2245,00,*48
\c:1546733845*51\$IIDBT,014.56,f,004.44,M,002.39,F*2B
\c:1546733845*51\$GPGLL,,,,,000011,V,A*6B
\c:1546733845*51\$IIHDM,195,M*31
\c:1546733845*51\$IIMWD,177.25,T,189.25,M,11.00,N,05.66,M*40
\c:1546733845*51\$IIMWV,351,R,11.13,N,A*26
\c:1546733845*51\$IIVDR,,,,,,N*0E
\c:1546733845*51\$IIVHW,183,T,195,M,00.00,N,00.00,K*52
\c:1546733845*51\$IIVWR,008,L,11.07,N,05.70,M,,*21
\c:1546733846*52\$IIVPW,,N,,*1F
\c:1546733846*52\$IIVTG,043.65,T,055.65,M,,N,,,A*78
\c:1546733846*52\$IIMWV,352,T,11.04,N,A*25
\c:1546733846*52\$IIVWT,008,L,11.04,N,05.68,M,,*2D
\c:1546733846*52\$IIHDM,195,M*31
\c:1546733846*52\$IIMWV,351,R,11.07,N,A*23
\c:1546733846*52\$GPXTE,A,A,,R,N,A*03
\c:1546733846*52\$GPZDA,000013,31,12,2245,00,*4A
\c:1546733847*53\$IIDBT,014.59,f,004.45,M,002.40,F*2B
\c:1546733847*53\$GPGLL,,,,,000013,V,A*69
\c:1546733847*53\$IIHDM,195,M*31
\c:1546733847*53\$IIMWD,175.22,T,187.21,M,11.37,N,05.85,M*46
\c:1546733847*53\$IIMWV,353,T,11.52,N,A*27
\c:1546733847*53\$IIVDR,,,,,,N*0E
\c:1546733847*53\$IIVHW,182,T,194,M,00.00,N,00.00,K*52
\c:1546733848*5C\$IIVWR,004,L,11.50,N,05.92,M,,*23
\c:1546733848*5C\$IIVPW,,N,,*1F
\c:1546733848*5C\$IIVTG,043.66,T,055.66,M,,N,,,A*78
\c:1546733848*5C\$IIMWV,353,R,11.41,N,A*23
\c:1546733848*5C\$IIVWT,007,L,11.37,N,05.85,M,,*21
\c:1546733848*5C\$IIHDM,194,M*30
\c:1546733848*5C\$IIMWV,355,T,11.23,N,A*27
\c:1546733848*5C\$GPXTE,A,A,,R,N,A*03
\c:1546733849*5D\$GPZDA,000015,31,12,2245,00,*4C
\c:1546733849*5D\$IIDBT,014.56,f,004.44,M,002.39,F*2B
\c:1546733849*5D\$GPGLL,,,,,000015,V,A*6F
\c:1546733849*5D\$IIHDM,194,M*30
\c:1546733849*5D\$IIMWD,175.77,T,187.77,M,10.98,N,05.65,M*4F
\c:1546733849*5D\$IIMWV,354,R,10.88,N,A*20
\c:1546733849*5D\$IIVDR,,,,,,N*0E
\c:1546733849*5D\$IIVHW,182,T,194,M,00.00,N,00.00,K*52
\c:1546733850*55\$IIVWR,006,L,10.71,N,05.51,M,,*2C
\c:1546733850*55\$IIVPW,,N,,*1F
\c:1546733850*55\$IIVTG,043.67,T,055.67,M,,N,,,A*78
\c:1546733850*55\$IIMWV,353,T,10.63,N,A*24
\c:1546733850*55\$IIVWT,007,L,10.63,N,05.47,M,,*2F
\c:1546733850*55\$IIHDM,195,M*31
\c:1546733850*55\$IIMWV,354,R,10.71,N,A*26
\c:1546733850*55\$GPXTE,A,A,,R,N,A*03
\c:1546733851*54\$GPZDA,000017,31,12,2245,00,*4E
\c:1546733851*54\$IIDBT,014.56,f,004.44,M,002.39,F*2B
\c:1546733851*54\$GPGLL,,,,,000017,V,A*6D
\c:1546733851*54\$IIHDM,195,M*31
\c:1546733851*54\$IIMWD,175.75,T,187.75,M,10.78,N,05.55,M*42
\c:1546733851*54\$IIMWV,353,T,10.78,N,A*2E
\c:1546733851*54\$IIVDR,,,,,,N*0E
\c:1546733851*54\$IIVHW,183,T,195,M,00.00,N,00.00,K*52
\c:1546733852*57\$IIVWR,008,L,10.71,N,05.51,M,,*22
\c:1546733852*57\$IIVPW,,N,,*1F
\c:1546733852*57\$IIVTG,043.68,T,055.68,M,,N,,,A*78
\c:1546733852*57\$IIMWV,352,R,10.65,N,A*25
\c:1546733852*57\$IIVWT,008,L,10.63,N,05.47,M,,*20
\c:1546733852*57\$IIHDM,195,M*31
\c:1546733852*57\$IIMWV,355,T,10.73,N,A*23
\c:1546733852*57\$GPXTE,A,A,,R,N,A*03
\c:1546733853*56\$GPZDA,000019,31,12,2245,00,*40
\c:1546733853*56\$IIDBT,014.53,f,004.43,M,002.39,F*29
\c:1546733853*56\$GPGLL,,,,,000019,V,A*63
\c:1546733853*56\$IIHDM,194,M*30
\c:1546733853*56\$IIMWD,177.55,T,189.54,M,10.43,N,05.37,M*43
\c:1546733853*56\$IIMWV,355,R,10.47,N,A*22
\c:1546733853*56\$IIVDR,,,,,,N*0E
\c:1546733854*51\$IIVHW,182,T,194,M,00.00,N,00.00,K*52
\c:1546733854*51\$IIVWR,003,L,10.51,N,05.41,M,,*2A
\c:1546733854*51\$IIVPW,,N,,*1F
\c:1546733854*51\$IIVTG,043.69,T,055.69,M,,N,,,A*78
\c:1546733854*51\$IIMWV,354,T,10.57,N,A*24
\c:1546733854*51\$IIVWT,006,L,10.57,N,05.44,M,,*2A
\c:1546733854*51\$IIHDM,195,M*31
\c:1546733854*51\$IIMWV,353,R,10.59,N,A*2B
\c:1546733855*50\$GPXTE,A,A,,R,N,A*03
\c:1546733855*50\$GPZDA,000021,31,12,2245,00,*4B
\c:1546733855*50\$IIDBT,014.56,f,004.44,M,002.39,F*2B
\c:1546733855*50\$GPGLL,,,,,000021,V,A*68
\c:1546733855*50\$IIHDM,195,M*31
\c:1546733855*50\$IIMWD,176.12,T,188.12,M,10.39,N,05.35,M*4D
\c:1546733855*50\$IIMWV,353,T,10.39,N,A*2B
\c:1546733855*50\$IIVDR,,,,,,N*0E
\c:1546733856*53\$IIVHW,183,T,195,M,00.00,N,00.00,K*52
\c:1546733856*53\$IIVWR,008,L,10.24,N,05.27,M,,*23
\c:1546733856*53\$IIVPW,,N,,*1F
\c:1546733856*53\$IIVTG,043.70,T,055.70,M,,N,,,A*78
\c:1546733856*53\$IIMWV,351,R,10.18,N,A*2C
\c:1546733856*53\$IIVWT,010,L,10.16,N,05.23,M,,*29
\c:1546733856*53\$IIHDM,195,M*31
\c:1546733856*53\$IIMWV,350,T,09.99,N,A*2A
\c:1546733857*52\$GPXTE,A,A,,R,N,A*03
\c:1546733857*52\$GPZDA,000023,31,12,2245,00,*49
\c:1546733857*52\$IIDBT,014.59,f,004.45,M,002.40,F*2B
\c:1546733857*52\$GPGLL,,,,,000023,V,A*6A
\c:1546733857*52\$IIHDM,195,M*31
\c:1546733857*52\$IIMWD,174.27,T,186.27,M,10.01,N,05.15,M*48
\c:1546733857*52\$IIMWV,352,R,10.04,N,A*22
\c:1546733857*52\$IIVDR,,,,,,N*0E
\c:1546733858*5D\$IIVHW,183,T,195,M,00.00,N,00.00,K*52
\c:1546733858*5D\$IIVWR,007,L,10.51,N,05.41,M,,*2E
\c:1546733858*5D\$IIVPW,,N,,*1F
\c:1546733858*5D\$IIVTG,043.72,T,055.71,M,,N,,,A*7B
\c:1546733858*5D\$IIMWV,352,T,10.57,N,A*22
\c:1546733858*5D\$IIVWT,005,L,11.09,N,05.71,M,,*25
\c:1546733858*5D\$IIHDM,195,M*31
\c:1546733859*5C\$IIMWV,355,R,11.02,N,A*22
\c:1546733859*5C\$GPXTE,A,A,,R,N,A*03
\c:1546733859*5C\$GPZDA,000025,31,12,2245,00,*4F
\c:1546733859*5C\$IIDBT,014.59,f,004.45,M,002.40,F*2B
\c:1546733859*5C\$GPGLL,,,,,000025,V,A*6C
\c:1546733859*5C\$IIHDM,195,M*31
\c:1546733859*5C\$IIMWD,173.34,T,185.33,M,11.19,N,05.76,M*46
\c:1546733859*5C\$IIMWV,351,T,11.19,N,A*2A
\c:1546733860*56\$IIVDR,,,,,,N*0E
\c:1546733860*56\$IIVHW,183,T,195,M,00.00,N,00.00,K*52
\c:1546733860*56\$IIVWR,006,L,11.13,N,05.73,M,,*29
\c:1546733860*56\$IIVPW,,N,,*1F
\c:1546733860*56\$IIVTG,043.73,T,055.72,M,,N,,,A*79
\c:1546733860*56\$IIMWV,352,R,11.21,N,A*24
\c:1546733860*56\$IIVWT,006,L,11.09,N,05.71,M,,*26
\c:1546733860*56\$IIHDM,195,M*31
\c:1546733861*57\$IIMWV,351,T,10.96,N,A*2C
\c:1546733861*57\$GPXTE,A,A,,R,N,A*03
\c:1546733861*57\$GPZDA,000027,31,12,2245,00,*4D
\c:1546733861*57\$IIDBT,014.56,f,004.44,M,002.39,F*2B
\c:1546733861*57\$GPGLL,,,,,000027,V,A*6E
\c:1546733861*57\$IIHDM,195,M*31
\c:1546733861*57\$IIMWD,174.05,T,186.04,M,11.07,N,05.70,M*4D
\c:1546733861*57\$IIMWV,351,R,11.11,N,A*24
\c:1546733862*54\$IIVDR,,,,,,N*0E
\c:1546733862*54\$IIVHW,183,T,195,M,00.00,N,00.00,K*52
\c:1546733862*54\$IIVWR,008,L,10.92,N,05.62,M,,*2F
\c:1546733862*54\$IIVPW,,N,,*1F
\c:1546733862*54\$IIVTG,043.74,T,055.73,M,,N,,,A*7F
\c:1546733862*54\$IIMWV,351,T,10.88,N,A*23
\c:1546733862*54\$IIVWT,008,L,10.76,N,05.54,M,,*26
\c:1546733862*54\$IIHDM,195,M*31
\c:1546733863*55\$IIMWV,351,R,10.98,N,A*24
\c:1546733863*55\$GPXTE,A,A,,R,N,A*03
\c:1546733863*55\$GPZDA,211432,16,01,2019,00,*43
\c:1546733863*55\$IIDBT,014.56,f,004.44,M,002.39,F*2B
\c:1546733863*55\$GPGLL,,,,,211432,V,A*6C
\c:1546733863*55\$IIHDM,195,M*31
\c:1546733863*55\$IIMWD,178.20,T,190.20,M,10.80,N,05.56,M*4D
\c:1546733863*55\$IIMWV,355,T,10.80,N,A*2F
\c:1546733864*52\$IIVDR,,,,,,N*0E
\c:1546733864*52\$IIVHW,183,T,195,M,00.00,N,00.00,K*52
\c:1546733864*52\$IIVWR,006,L,10.98,N,05.65,M,,*2C
\c:1546733864*52\$IIVPW,,N,,*1F
\c:1546733864*52\$IIVTG,000.00,T,011.99,M,0.00,N,,,A*61
\c:1546733864*52\$IIMWV,351,R,10.98,N,A*24
\c:1546733864*52\$IIVWT,010,L,11.23,N,05.78,M,,*20
\c:1546733865*53\$IIHDM,195,M*31
\c:1546733865*53\$IIMWV,350,T,11.19,N,A*2B
\c:1546733865*53\$GPXTE,A,A,,R,N,A*03
\c:1546733865*53\$GPZDA,211435,16,01,2019,00,*44
\c:1546733865*53\$IIDBT,014.53,f,004.43,M,002.39,F*29
\c:1546733865*53\$GPGLL,3247.222,N,07954.563,W,211435,A,A*5A
\c:1546733865*53\$IIHDM,195,M*31
\c:1546733865*53\$IIMWD,176.16,T,188.15,M,11.19,N,05.76,M*4A
\c:1546733866*50\$IIMWV,353,R,11.21,N,A*25
\c:1546733866*50\$IIVDR,359.98,T,011.98,M,0.00,N*06
\c:1546733866*50\$IIVHW,183,T,195,M,00.00,N,00.00,K*52
\c:1546733866*50\$IIVWR,007,L,11.07,N,05.70,M,,*2E
\c:1546733866*50\$IIVPW,,N,,*1F
\c:1546733866*50\$IIVTG,000.00,T,011.99,M,0.00,N,,,A*61
\c:1546733866*50\$IIMWV,352,T,10.92,N,A*2B
\c:1546733866*50\$IIVWT,006,L,11.02,N,05.67,M,,*2A
\c:1546733867*51\$IIHDM,195,M*31
\c:1546733867*51\$IIMWV,356,R,10.88,N,A*22
\c:1546733867*51\$GPXTE,A,A,,R,N,A*03
\c:1546733867*51\$GPZDA,211437,16,01,2019,00,*46
\c:1546733867*51\$IIDBT,014.63,f,004.46,M,002.41,F*20
\c:1546733867*51\$GPGLL,3247.222,N,07954.563,W,211437,A,A*58
\c:1546733867*51\$IIHDM,195,M*31
\c:1546733868*5E\$IIMWD,174.98,T,186.98,M,10.45,N,05.38,M*47
\c:1546733868*5E\$IIMWV,352,T,10.45,N,A*21
\c:1546733868*5E\$IIVDR,359.98,T,011.98,M,0.00,N*06
\c:1546733868*5E\$IIVHW,183,T,195,M,00.00,N,00.00,K*52
\c:1546733868*5E\$IIVWR,008,L,10.51,N,05.41,M,,*21
\c:1546733868*5E\$IIVPW,,N,,*1F
\c:1546733868*5E\$IIVTG,000.00,T,011.99,M,0.00,N,,,A*61
\c:1546733868*5E\$IIMWV,359,R,10.32,N,A*2C
\c:1546733869*5F\$IIVWT,010,L,09.95,N,05.12,M,,*28
\c:1546733869*5F\$IIHDM,195,M*31
\c:1546733869*5F\$IIMWV,349,T,10.49,N,A*27
\c:1546733869*5F\$GPXTE,A,A,,R,N,A*03
\c:1546733869*5F\$GPZDA,211439,16,01,2019,00,*48
\c:1546733869*5F\$IIDBT,014.59,f,004.45,M,002.40,F*2B
\c:1546733869*5F\$GPGLL,3247.222,N,07954.563,W,211439,A,A*56
\c:1546733869*5F\$IIHDM,195,M*31
\c:1546733870*57\$IIMWD,177.33,T,189.32,M,10.49,N,05.40,M*49
\c:1546733870*57\$IIMWV,355,R,10.51,N,A*25
\c:1546733870*57\$IIVDR,359.98,T,011.98,M,0.00,N*06
\c:1546733870*57\$IIVHW,183,T,195,M,00.00,N,00.00,K*52
\c:1546733870*57\$IIVWR,006,L,10.22,N,05.26,M,,*2A
\c:1546733870*57\$IIVPW,,N,,*1F
\c:1546733870*57\$IIVTG,000.00,T,011.99,M,0.00,N,,,A*61
\c:1546733870*57\$IIMWV,355,T,10.20,N,A*25
\c:1546733871*56\$IIVWT,003,L,10.04,N,05.17,M,,*2F
\c:1546733871*56\$IIHDM,195,M*31
\c:1546733871*56\$IIMWV,353,R,10.12,N,A*24
\c:1546733871*56\$GPXTE,A,A,,R,N,A*03
\c:1546733871*56\$GPZDA,211441,16,01,2019,00,*47
\c:1546733871*56\$IIDBT,014.59,f,004.45,M,002.40,F*2B
\c:1546733871*56\$GPGLL,3247.222,N,07954.564,W,211441,A,A*5E
\c:1546733871*56\$IIHDM,195,M*31
\c:1546733872*55\$IIMWD,178.95,T,190.95,M,10.39,N,05.35,M*4A
\c:1546733872*55\$IIMWV,356,T,10.39,N,A*2E
\c:1546733872*55\$IIVDR,359.98,T,011.98,M,0.00,N*06
\c:1546733872*55\$IIVHW,183,T,195,M,00.00,N,00.00,K*52
\c:1546733872*55\$IIVWR,007,L,10.59,N,05.45,M,,*22
\c:1546733872*55\$IIVPW,,N,,*1F
\c:1546733872*55\$IIVTG,000.00,T,011.99,M,0.00,N,,,A*61
\c:1546733872*55\$IIMWV,356,R,10.59,N,A*2E
\c:1546733873*54\$IIVWT,005,L,10.67,N,05.49,M,,*27
\c:1546733873*54\$IIHDM,195,M*31
\c:1546733873*54\$IIMWV,356,T,10.69,N,A*2B
\c:1546733873*54\$GPXTE,A,A,,R,N,A*03
\c:1546733873*54\$GPZDA,211443,16,01,2019,00,*45
\c:1546733873*54\$IIDBT,014.56,f,004.44,M,002.39,F*2B
\c:1546733873*54\$GPGLL,3247.222,N,07954.564,W,211443,A,A*5C
\c:1546733873*54\$IIHDM,195,M*31
\c:1546733874*53\$IIMWD,187.54,T,199.54,M,10.22,N,05.26,M*4B
\c:1546733874*53\$IIMWV,004,R,10.24,N,A*20
\c:1546733874*53\$IIVDR,359.98,T,011.98,M,0.00,N*06
\c:1546733874*53\$IIVHW,183,T,195,M,00.00,N,00.00,K*52
\c:1546733874*53\$IIVWR,004,L,10.32,N,05.31,M,,*2F
\c:1546733874*53\$IIVPW,,N,,*1F
\c:1546733874*53\$IIVTG,000.00,T,011.99,M,0.00,N,,,A*61
\c:1546733875*52\$IIMWV,356,T,10.16,N,A*23
\c:1546733875*52\$IIVWT,004,L,10.16,N,05.23,M,,*2C
\c:1546733875*52\$IIHDM,195,M*31
\c:1546733875*52\$IIMWV,354,R,10.28,N,A*2A
\c:1546733875*52\$GPXTE,A,A,,R,N,A*03
\c:1546733875*52\$GPZDA,211445,16,01,2019,00,*43
\c:1546733875*52\$IIDBT,014.59,f,004.45,M,002.40,F*2B
\c:1546733875*52\$GPGLL,3247.222,N,07954.564,W,211445,A,A*5A
\c:1546733876*51\$IIHDM,195,M*31
\c:1546733876*51\$IIMWD,176.83,T,188.82,M,10.10,N,05.20,M*43
\c:1546733876*51\$IIMWV,354,T,10.22,N,A*26
\c:1546733876*51\$IIVDR,359.98,T,011.98,M,0.00,N*06
\c:1546733876*51\$IIVHW,183,T,195,M,00.00,N,00.00,K*52
\c:1546733876*51\$IIVWR,003,L,10.18,N,05.33,M,,*22
\c:1546733876*51\$IIVPW,,N,,*1F
\c:1546733876*51\$IIVTG,000.00,T,011.99,M,0.00,N,,,A*61
\c:1546733877*50\$IIMWV,360,R,10.38,N,A*2C
\c:1546733877*50\$IIVWT,000,L,10.36,N,05.33,M,,*2B
\c:1546733877*50\$IIHDM,195,M*31
\c:1546733877*50\$IIMWV,356,T,10.22,N,A*24
\c:1546733877*50\$GPXTE,A,A,,R,N,A*03
\c:1546733877*50\$GPZDA,211447,16,01,2019,00,*41
\c:1546733877*50\$IIDBT,014.59,f,004.45,M,002.40,F*2B
\c:1546733878*5F\$GPGLL,3247.222,N,07954.564,W,211447,A,A*58
\c:1546733878*5F\$IIHDM,195,M*31
\c:1546733878*5F\$IIMWD,180.74,T,192.74,M,10.55,N,05.43,M*44
\c:1546733878*5F\$IIMWV,358,R,10.71,N,A*2A
\c:1546733878*5F\$IIVDR,359.98,T,011.98,M,0.00,N*06
\c:1546733878*5F\$IIVHW,183,T,195,M,00.00,N,00.00,K*52
\c:1546733878*5F\$IIVWR,002,L,10.84,N,05.58,M,,*2B
\c:1546733878*5F\$IIVPW,,N,,*1F
\c:1546733879*5E\$IIVTG,000.00,T,011.99,M,0.00,N,,,A*61
\c:1546733879*5E\$IIMWV,000,T,10.96,N,A*2B
\c:1546733879*5E\$IIVWT,000,R,10.96,N,05.64,M,,*3D
\c:1546733879*5E\$IIHDM,195,M*31
\c:1546733879*5E\$IIMWV,359,R,10.88,N,A*2D
\c:1546733879*5E\$GPXTE,A,A,,R,N,A*03
\c:1546733879*5E\$GPZDA,211449,16,01,2019,00,*4F
\c:1546733879*5E\$IIDBT,014.53,f,004.43,M,002.39,F*29
\c:1546733880*58\$GPGLL,3247.222,N,07954.564,W,211449,A,A*56
\c:1546733880*58\$IIHDM,195,M*31
\c:1546733880*58\$IIMWD,180.00,T,191.99,M,11.00,N,05.66,M*41
\c:1546733880*58\$IIMWV,001,T,10.86,N,A*2B
\c:1546733880*58\$IIVDR,359.98,T,011.98,M,0.00,N*06
\c:1546733880*58\$IIVHW,183,T,195,M,00.00,N,00.00,K*52
\c:1546733880*58\$IIVWR,002,L,10.80,N,05.56,M,,*21
\c:1546733880*58\$IIVPW,,N,,*1F
\c:1546733881*59\$IIVTG,000.00,T,011.99,M,0.00,N,,,A*61
\c:1546733881*59\$IIMWV,356,R,10.61,N,A*25
\c:1546733881*59\$IIVWT,005,L,10.57,N,05.44,M,,*29
\c:1546733881*59\$IIHDM,195,M*31
\c:1546733881*59\$IIMWV,356,T,10.49,N,A*29
\c:1546733881*59\$GPXTE,A,A,,R,N,A*03
\c:1546733881*59\$GPZDA,211451,16,01,2019,00,*46
\c:1546733881*59\$IIDBT,014.50,f,004.42,M,002.38,F*2A
\c:1546733882*5A\$GPGLL,3247.222,N,07954.564,W,211452,A,A*5C
\c:1546733882*5A\$IIHDM,195,M*31
\c:1546733882*5A\$IIMWD,181.58,T,193.57,M,10.59,N,05.45,M*41
\c:1546733882*5A\$IIMWV,360,R,10.65,N,A*24
\c:1546733882*5A\$IIVDR,359.98,T,011.98,M,0.00,N*06
\c:1546733882*5A\$IIVHW,183,T,195,M,00.00,N,00.00,K*52
\c:1546733882*5A\$IIVWR,001,L,10.59,N,05.45,M,,*24
\c:1546733882*5A\$IIVPW,,N,,*1F
\c:1546733883*5B\$IIVTG,000.00,T,011.99,M,0.00,N,,,A*61
\c:1546733883*5B\$IIMWV,357,T,10.67,N,A*24
\c:1546733883*5B\$IIVWT,003,L,10.67,N,05.49,M,,*21
\c:1546733883*5B\$IIHDM,195,M*31
\c:1546733883*5B\$IIMWV,356,R,10.78,N,A*2D
\c:1546733883*5B\$GPXTE,A,A,,R,N,A*03
\c:1546733883*5B\$GPZDA,211453,16,01,2019,00,*44
\c:1546733883*5B\$IIDBT,014.50,f,004.42,M,002.38,F*2A
\c:1546733884*5C\$GPGLL,3247.222,N,07954.564,W,211454,A,A*5A
\c:1546733884*5C\$IIHDM,195,M*31
\c:1546733884*5C\$IIMWD,179.71,T,191.71,M,10.76,N,05.54,M*46
\c:1546733884*5C\$IIMWV,356,T,10.80,N,A*2C
\c:1546733884*5C\$IIVDR,359.98,T,011.98,M,0.00,N*06
\c:1546733884*5C\$IIVHW,183,T,195,M,00.00,N,00.00,K*52
\c:1546733884*5C\$IIVWR,003,L,10.80,N,05.56,M,,*20
\c:1546733884*5C\$IIVPW,,N,,*1F
\c:1546733885*5D\$IIVTG,000.00,T,011.99,M,0.00,N,,,A*61
\c:1546733885*5D\$IIMWV,355,R,10.69,N,A*2E
\c:1546733885*5D\$IIVWT,005,L,10.67,N,05.49,M,,*27
\c:1546733885*5D\$IIHDM,195,M*31
\c:1546733885*5D\$IIMWV,357,T,10.57,N,A*27
\c:1546733885*5D\$GPXTE,A,A,,R,N,A*03
\c:1546733885*5D\$GPZDA,211455,16,01,2019,00,*42
\c:1546733886*5E\$IIDBT,014.50,f,004.42,M,002.38,F*2A
\c:1546733886*5E\$GPGLL,3247.222,N,07954.564,W,211456,A,A*58
\c:1546733886*5E\$IIHDM,195,M*31
\c:1546733886*5E\$IIMWD,180.19,T,192.18,M,10.61,N,05.46,M*47
\c:1546733886*5E\$IIMWV,355,R,10.74,N,A*22
\c:1546733886*5E\$IIVDR,359.98,T,011.98,M,0.00,N*06
\c:1546733886*5E\$IIVHW,183,T,195,M,00.00,N,00.00,K*52
\c:1546733886*5E\$IIVWR,003,L,10.88,N,05.60,M,,*2D
\c:1546733887*5F\$IIVPW,,N,,*1F
\c:1546733887*5F\$IIVTG,000.00,T,011.99,M,0.00,N,,,A*61
\c:1546733887*5F\$IIMWV,356,T,10.96,N,A*2B
\c:1546733887*5F\$IIVWT,004,L,10.96,N,05.64,M,,*27
\c:1546733887*5F\$IIHDM,195,M*31
\c:1546733887*5F\$IIMWV,358,R,10.88,N,A*2C
\c:1546733887*5F\$GPXTE,A,A,,R,N,A*03
\c:1546733887*5F\$GPZDA,211457,16,01,2019,00,*40
\c:1546733888*50\$IIDBT,014.50,f,004.42,M,002.38,F*2A
\c:1546733888*50\$GPGLL,3247.222,N,07954.564,W,211458,A,A*56
\c:1546733888*50\$IIHDM,195,M*31
\c:1546733888*50\$IIMWD,177.64,T,189.64,M,10.96,N,05.64,M*4C
\c:1546733888*50\$IIMWV,355,T,11.02,N,A*24
\c:1546733888*50\$IIVDR,359.98,T,011.98,M,0.00,N*06
\c:1546733888*50\$IIVHW,183,T,195,M,00.00,N,00.00,K*52
\c:1546733888*50\$IIVWR,007,L,11.02,N,05.67,M,,*2D
\c:1546733889*51\$IIVPW,,N,,*1F
\c:1546733889*51\$IIVTG,000.00,T,011.99,M,0.00,N,,,A*61
\c:1546733889*51\$IIMWV,357,R,10.92,N,A*28
\c:1546733889*51\$IIVWT,003,L,10.88,N,05.60,M,,*2B
\c:1546733889*51\$IIHDM,195,M*31
\c:1546733889*51\$IIMWV,355,T,10.76,N,A*26
\c:1546733889*51\$GPXTE,A,A,,R,N,A*03
\c:1546733889*51\$GPZDA,211459,16,01,2019,00,*4E
\c:1546733890*59\$IIDBT,014.56,f,004.44,M,002.39,F*2B
\c:1546733890*59\$GPGLL,3247.222,N,07954.564,W,211500,A,A*5A
\c:1546733890*59\$IIHDM,195,M*31
\c:1546733890*59\$IIMWD,179.13,T,191.12,M,10.69,N,05.50,M*4D
\c:1546733890*59\$IIMWV,358,R,10.65,N,A*2F
\c:1546733890*59\$IIVDR,359.98,T,011.98,M,0.00,N*06
\c:1546733890*59\$IIVHW,183,T,195,M,00.00,N,00.00,K*52
\c:1546733891*58\$IIVWR,002,L,10.61,N,05.46,M,,*2F
\c:1546733891*58\$IIVPW,,N,,*1F
\c:1546733891*58\$IIVTG,000.00,T,011.99,M,0.00,N,,,A*61
\c:1546733891*58\$IIMWV,356,T,10.74,N,A*27
\c:1546733891*58\$IIVWT,004,L,10.74,N,05.53,M,,*2F
\c:1546733891*58\$IIHDM,195,M*31
\c:1546733891*58\$IIMWV,358,R,10.55,N,A*2C
\c:1546733891*58\$GPXTE,A,A,,R,N,A*03
\c:1546733892*5B\$GPZDA,211501,16,01,2019,00,*42
\c:1546733892*5B\$IIDBT,014.63,f,004.46,M,002.41,F*20
\c:1546733892*5B\$GPGLL,3247.222,N,07954.564,W,211502,A,A*58
\c:1546733892*5B\$IIHDM,195,M*31
\c:1546733892*5B\$IIMWD,180.81,T,192.81,M,10.65,N,05.48,M*4C
\c:1546733892*5B\$IIMWV,357,T,10.57,N,A*27
\c:1546733892*5B\$IIVDR,359.98,T,011.98,M,0.00,N*06
\c:1546733892*5B\$IIVHW,183,T,195,M,00.00,N,00.00,K*52
\c:1546733893*5A\$IIVWR,004,L,10.69,N,05.50,M,,*26
\c:1546733893*5A\$IIVPW,,N,,*1F
\c:1546733893*5A\$IIVTG,000.00,T,011.99,M,0.00,N,,,A*61
\c:1546733893*5A\$IIMWV,357,R,10.59,N,A*2F
\c:1546733893*5A\$IIVWT,004,L,10.57,N,05.44,M,,*28
\c:1546733893*5A\$IIHDM,195,M*31
\c:1546733893*5A\$IIMWV,357,T,10.34,N,A*22
\c:1546733893*5A\$GPXTE,A,A,,R,N,A*03
\c:1546733894*5D\$GPZDA,211503,16,01,2019,00,*40
\c:1546733894*5D\$IIDBT,014.53,f,004.43,M,002.39,F*29
\c:1546733894*5D\$GPGLL,3247.222,N,07954.564,W,211504,A,A*5E
\c:1546733894*5D\$IIHDM,195,M*31
\c:1546733894*5D\$IIMWD,178.05,T,190.05,M,10.04,N,05.17,M*44
\c:1546733894*5D\$IIMWV,353,R,10.28,N,A*2D
\c:1546733894*5D\$IIVDR,359.98,T,011.98,M,0.00,N*06
\c:1546733894*5D\$IIVHW,183,T,195,M,00.00,N,00.00,K*52
\c:1546733895*5C\$IIVWR,002,L,10.24,N,05.27,M,,*29
\c:1546733895*5C\$IIVPW,,N,,*1F
\c:1546733895*5C\$IIVTG,000.00,T,011.99,M,0.00,N,,,A*61
\c:1546733895*5C\$IIMWV,351,T,10.20,N,A*21
\c:1546733895*5C\$IIVWT,009,L,10.20,N,05.25,M,,*22
\c:1546733895*5C\$IIHDM,195,M*31
\c:1546733895*5C\$IIMWV,354,R,10.18,N,A*29
\c:1546733895*5C\$GPXTE,A,A,,R,N,A*03
\c:1546733896*5F\$GPZDA,211504,16,01,2019,00,*47
\c:1546733896*5F\$IIDBT,014.56,f,004.44,M,002.39,F*2B
\c:1546733896*5F\$GPGLL,3247.222,N,07954.564,W,211504,A,A*5E
\c:1546733896*5F\$IIHDM,195,M*31
\c:1546733896*5F\$IIMWD,175.05,T,187.05,M,10.12,N,05.21,M*4D
\c:1546733896*5F\$IIMWV,352,T,10.24,N,A*26
\c:1546733896*5F\$IIVDR,359.98,T,011.98,M,0.00,N*06
\c:1546733897*5E\$IIVHW,183,T,195,M,00.00,N,00.00,K*52
\c:1546733897*5E\$IIVWR,009,L,10.08,N,05.19,M,,*21
\c:1546733897*5E\$IIVPW,,N,,*1F
\c:1546733897*5E\$IIVTG,000.00,T,011.99,M,0.00,N,,,A*61
\c:1546733897*5E\$IIMWV,352,R,10.04,N,A*22
\c:1546733897*5E\$IIVWT,009,L,10.01,N,05.15,M,,*22
\c:1546733897*5E\$IIHDM,195,M*31
\c:1546733897*5E\$IIMWV,347,T,09.87,N,A*23
\c:1546733898*51\$GPXTE,A,A,,R,N,A*03
\c:1546733898*51\$GPZDA,211506,16,01,2019,00,*45
\c:1546733898*51\$IIDBT,014.50,f,004.42,M,002.38,F*2A
\c:1546733898*51\$GPGLL,3247.222,N,07954.564,W,211506,A,A*5C
\c:1546733898*51\$IIHDM,195,M*31
\c:1546733898*51\$IIMWD,168.30,T,180.30,M,09.50,N,04.89,M*4B
\c:1546733898*51\$IIMWV,345,R,09.52,N,A*2F
\c:1546733898*51\$IIVDR,359.98,T,011.98,M,0.00,N*06
\c:1546733899*50\$IIVHW,183,T,195,M,00.00,N,00.00,K*52
\c:1546733899*50\$IIVWR,012,L,09.56,N,04.92,M,,*2A
\c:1546733899*50\$IIVPW,,N,,*1F
\c:1546733899*50\$IIVTG,000.00,T,011.99,M,0.00,N,,,A*61
\c:1546733899*50\$IIMWV,355,T,09.66,N,A*2F
\c:1546733899*50\$IIVWT,005,L,09.66,N,04.97,M,,*2C
\c:1546733899*50\$IIHDM,195,M*31
\c:1546733899*50\$IIMWV,354,R,09.62,N,A*2C
\c:1546733900*51\$GPXTE,A,A,,R,N,A*03
\c:1546733900*51\$GPZDA,211508,16,01,2019,00,*4B
\c:1546733900*51\$IIDBT,014.50,f,004.42,M,002.38,F*2A
\c:1546733900*51\$GPGLL,3247.222,N,07954.564,W,211508,A,A*52
\c:1546733900*51\$IIHDM,195,M*31
\c:1546733900*51\$IIMWD,178.87,T,190.87,M,09.68,N,04.98,M*40
\c:1546733900*51\$IIMWV,356,T,09.68,N,A*22
\c:1546733901*50\$IIVDR,359.98,T,011.98,M,0.00,N*06
\c:1546733901*50\$IIVHW,183,T,195,M,00.00,N,00.00,K*52
\c:1546733901*50\$IIVWR,006,L,09.48,N,04.88,M,,*2B
\c:1546733901*50\$IIVPW,,N,,*1F
\c:1546733901*50\$IIVTG,000.00,T,011.99,M,0.00,N,,,A*61
\c:1546733901*50\$IIMWV,356,R,09.52,N,A*2D
\c:1546733901*50\$IIVWT,004,L,09.50,N,04.89,M,,*27
\c:1546733901*50\$IIHDM,195,M*31
\c:1546733902*53\$IIMWV,358,T,09.36,N,A*27
\c:1546733902*53\$GPXTE,A,A,,R,N,A*03
\c:1546733902*53\$GPZDA,211510,16,01,2019,00,*42
\c:1546733902*53\$IIDBT,014.56,f,004.44,M,002.39,F*2B
\c:1546733902*53\$GPGLL,3247.222,N,07954.564,W,211510,A,A*5B
\c:1546733902*53\$IIHDM,195,M*31
\c:1546733902*53\$IIMWD,177.85,T,189.85,M,09.73,N,05.01,M*4C
\c:1546733902*53\$IIMWV,355,R,09.75,N,A*2B
\c:1546733903*52\$IIVDR,359.98,T,011.98,M,0.00,N*06
\c:1546733903*52\$IIVHW,183,T,195,M,00.00,N,00.00,K*52
\c:1546733903*52\$IIVWR,000,R,09.99,N,05.14,M,,*3B
\c:1546733903*52\$IIVPW,,N,,*1F
\c:1546733903*52\$IIVTG,000.00,T,011.99,M,0.00,N,,,A*61
\c:1546733903*52\$IIMWV,359,T,10.16,N,A*2C
\c:1546733903*52\$IIVWT,000,R,09.97,N,05.13,M,,*34
\c:1546733903*52\$IIHDM,195,M*31
\c:1546733904*55\$IIMWV,354,R,10.24,N,A*26
\c:1546733904*55\$GPXTE,A,A,,R,N,A*03
\c:1546733904*55\$GPZDA,211512,16,01,2019,00,*40
\c:1546733904*55\$IIDBT,014.53,f,004.43,M,002.39,F*29
\c:1546733904*55\$GPGLL,3247.222,N,07954.564,W,211512,A,A*59
\c:1546733904*55\$IIHDM,195,M*31
\c:1546733904*55\$IIMWD,182.95,T,194.95,M,10.16,N,05.23,M*41
\c:1546733904*55\$IIMWV,360,T,10.16,N,A*26
\c:1546733905*54\$IIVDR,359.98,T,011.98,M,0.00,N*06
\c:1546733905*54\$IIVHW,183,T,195,M,00.00,N,00.00,K*52
\c:1546733905*54\$IIVWR,002,L,10.08,N,05.19,M,,*2A
\c:1546733905*54\$IIVPW,,N,,*1F
\c:1546733905*54\$IIVTG,000.00,T,011.99,M,0.00,N,,,A*61
\c:1546733905*54\$IIMWV,000,R,10.22,N,A*22
\c:1546733905*54\$IIVWT,004,R,10.01,N,05.15,M,,*31
\c:1546733905*54\$IIHDM,195,M*31
\c:1546733906*57\$IIMWV,000,T,09.97,N,A*22
\c:1546733906*57\$GPXTE,A,A,,R,N,A*03
\c:1546733906*57\$GPZDA,211514,16,01,2019,00,*46
\c:1546733906*57\$IIDBT,014.56,f,004.44,M,002.39,F*2B
\c:1546733906*57\$GPGLL,3247.222,N,07954.564,W,211514,A,A*5F
\c:1546733906*57\$IIHDM,195,M*31
\c:1546733906*57\$IIMWD,184.54,T,196.53,M,10.03,N,05.16,M*40
\c:1546733907*56\$IIMWV,002,R,10.04,N,A*24
\c:1546733907*56\$IIVDR,359.98,T,011.98,M,0.00,N*06
\c:1546733907*56\$IIVHW,183,T,195,M,00.00,N,00.00,K*52
\c:1546733907*56\$IIVWR,001,L,10.12,N,05.21,M,,*29
\c:1546733907*56\$IIVPW,,N,,*1F
\c:1546733907*56\$IIVTG,000.00,T,011.99,M,0.00,N,,,A*61
\c:1546733907*56\$IIMWV,002,T,10.01,N,A*27
\c:1546733907*56\$IIVWT,001,L,09.87,N,05.08,M,,*20
\c:1546733908*59\$IIHDM,195,M*31
\c:1546733908*59\$IIMWV,357,R,09.99,N,A*2B
\c:1546733908*59\$GPXTE,A,A,,R,N,A*03
\c:1546733908*59\$GPZDA,211516,16,01,2019,00,*44
\c:1546733908*59\$IIDBT,014.63,f,004.46,M,002.41,F*20
\c:1546733908*59\$GPGLL,3247.222,N,07954.564,W,211516,A,A*5D
\c:1546733908*59\$IIHDM,195,M*31
\c:1546733908*59\$IIMWD,183.24,T,195.23,M,09.83,N,05.06,M*45
\c:1546733909*58\$IIMWV,000,T,09.83,N,A*27
\c:1546733909*58\$IIVDR,359.98,T,011.98,M,0.00,N*06
\c:1546733909*58\$IIVHW,183,T,195,M,00.00,N,00.00,K*52
\c:1546733909*58\$IIVWR,001,L,09.71,N,05.00,M,,*27
\c:1546733909*58\$IIVPW,,N,,*1F
\c:1546733909*58\$IIVTG,000.00,T,011.99,M,0.00,N,,,A*61
\c:1546733909*58\$IIMWV,356,R,09.69,N,A*25
\c:1546733909*58\$IIVWT,003,L,09.77,N,05.03,M,,*26
\c:1546733910*50\$IIHDM,195,M*31
\c:1546733910*50\$IIMWV,352,T,09.66,N,A*28
\c:1546733910*50\$GPXTE,A,A,,R,N,A*03
\c:1546733910*50\$GPZDA,211518,16,01,2019,00,*4A
\c:1546733910*50\$IIDBT,014.56,f,004.44,M,002.39,F*2B
\c:1546733910*50\$GPGLL,3247.222,N,07954.564,W,211518,A,A*53
\c:1546733910*50\$IIHDM,195,M*31
\c:1546733911*51\$IIMWD,177.84,T,189.83,M,09.73,N,05.01,M*4B
\c:1546733911*51\$IIMWV,355,R,09.75,N,A*2B
\c:1546733911*51\$IIVDR,359.98,T,011.98,M,0.00,N*06
\c:1546733911*51\$IIVHW,183,T,195,M,00.00,N,00.00,K*52
\c:1546733911*51\$IIVWR,004,L,09.52,N,04.90,M,,*2B
\c:1546733911*51\$IIVPW,,N,,*1F
\c:1546733911*51\$IIVTG,000.00,T,011.99,M,0.00,N,,,A*61
\c:1546733911*51\$IIMWV,354,T,09.40,N,A*2A
\c:1546733912*52\$IIVWT,004,L,09.23,N,04.75,M,,*20
\c:1546733912*52\$IIHDM,195,M*31
\c:1546733912*52\$IIMWV,356,R,09.00,N,A*2A
\c:1546733912*52\$GPXTE,A,A,,R,N,A*03
\c:1546733912*52\$GPZDA,211520,16,01,2019,00,*41
\c:1546733912*52\$IIDBT,014.56,f,004.44,M,002.39,F*2B
\c:1546733912*52\$GPGLL,3247.222,N,07954.564,W,211520,A,A*58
\c:1546733912*52\$IIHDM,195,M*31
\c:1546733913*53\$IIMWD,169.32,T,181.31,M,08.61,N,04.43,M*4D
\c:1546733913*53\$IIMWV,346,T,08.61,N,A*2B
\c:1546733913*53\$IIVDR,359.98,T,011.98,M,0.00,N*06
\c:1546733913*53\$IIVHW,183,T,195,M,00.00,N,00.00,K*52
\c:1546733913*53\$IIVWR,002,R,08.68,N,04.47,M,,*31
\c:1546733913*53\$IIVPW,,N,,*1F
\c:1546733913*53\$IIVTG,000.00,T,011.99,M,0.00,N,,,A*61
\c:1546733913*53\$IIMWV,353,R,08.43,N,A*29
\c:1546733914*54\$IIVWT,008,L,09.05,N,04.66,M,,*2A
\c:1546733914*54\$IIHDM,195,M*31
\c:1546733914*54\$IIMWV,005,T,08.98,N,A*29
\c:1546733914*54\$GPXTE,A,A,,R,N,A*03
\c:1546733914*54\$GPZDA,211522,16,01,2019,00,*43
\c:1546733914*54\$IIDBT,014.56,f,004.44,M,002.39,F*2B
\c:1546733914*54\$GPGLL,3247.222,N,07954.564,W,211522,A,A*5A
\c:1546733914*54\$IIHDM,195,M*31
\c:1546733915*55\$IIMWD,188.69,T,200.68,M,09.23,N,04.75,M*48
\c:1546733915*55\$IIMWV,006,R,09.25,N,A*2B
\c:1546733915*55\$IIVDR,359.98,T,011.98,M,0.00,N*06
\c:1546733915*55\$IIVHW,183,T,195,M,00.00,N,00.00,K*52
\c:1546733915*55\$IIVWR,001,L,09.69,N,04.99,M,,*2F
\c:1546733915*55\$IIVPW,,N,,*1F
\c:1546733915*55\$IIVTG,000.00,T,011.99,M,0.00,N,,,A*61
\c:1546733915*55\$IIMWV,001,T,09.27,N,A*28
\c:1546733916*56\$IIVWT,005,L,09.27,N,04.77,M,,*27
\c:1546733916*56\$IIHDM,195,M*31
\c:1546733916*56\$IIMWV,359,R,09.62,N,A*21
\c:1546733916*56\$GPXTE,A,A,,R,N,A*03
\c:1546733916*56\$GPZDA,211524,16,01,2019,00,*45
\c:1546733916*56\$IIDBT,014.63,f,004.46,M,002.41,F*20
\c:1546733916*56\$GPGLL,3247.222,N,07954.564,W,211524,A,A*5C
\c:1546733916*56\$IIHDM,195,M*31
\c:1546733917*57\$IIMWD,168.70,T,180.69,M,09.44,N,04.86,M*49
\c:1546733917*57\$IIMWV,346,T,09.44,N,A*2D
\c:1546733917*57\$IIVDR,359.98,T,011.98,M,0.00,N*06
\c:1546733917*57\$IIVHW,183,T,195,M,00.00,N,00.00,K*52
\c:1546733917*57\$IIVWR,012,L,09.69,N,04.99,M,,*2D
\c:1546733917*57\$IIVPW,,N,,*1F
\c:1546733917*57\$IIVTG,000.00,T,011.99,M,0.00,N,,,A*61
\c:1546733918*58\$IIMWV,348,R,10.18,N,A*24
\c:1546733918*58\$IIVWT,010,L,10.20,N,05.25,M,,*2A
\c:1546733918*58\$IIHDM,195,M*31
\c:1546733918*58\$IIMWV,350,T,10.20,N,A*20
\c:1546733918*58\$GPXTE,A,A,,R,N,A*03
\c:1546733918*58\$GPZDA,211526,16,01,2019,00,*47
\c:1546733918*58\$IIDBT,014.56,f,004.44,M,002.39,F*2B
\c:1546733918*58\$GPGLL,3247.222,N,07954.564,W,211526,A,A*5E
\c:1546733919*59\$IIHDM,195,M*31
\c:1546733919*59\$IIMWD,174.34,T,186.33,M,10.59,N,05.45,M*47
\c:1546733919*59\$IIMWV,352,R,10.61,N,A*21
\c:1546733919*59\$IIVDR,359.98,T,011.98,M,0.00,N*06
\c:1546733919*59\$IIVHW,183,T,195,M,00.00,N,00.00,K*52
\c:1546733919*59\$IIVWR,006,L,10.65,N,05.48,M,,*21
\c:1546733919*59\$IIVPW,,N,,*1F
\c:1546733919*59\$IIVTG,000.00,T,011.99,M,0.00,N,,,A*61
\c:1546733920*53\$IIMWV,352,T,10.65,N,A*23
\c:1546733920*53\$IIVWT,008,L,10.65,N,05.48,M,,*29
\c:1546733920*53\$IIHDM,195,M*31
\c:1546733920*53\$IIMWV,353,R,10.74,N,A*24
\c:1546733920*53\$GPXTE,A,A,,R,N,A*03
\c:1546733920*53\$GPZDA,211528,16,01,2019,00,*49
\c:1546733920*53\$IIDBT,014.56,f,004.44,M,002.39,F*2B
\c:1546733921*52\$GPGLL,3247.222,N,07954.564,W,211528,A,A*50
\c:1546733921*52\$IIHDM,195,M*31
\c:1546733921*52\$IIMWD,175.32,T,187.32,M,10.76,N,05.54,M*4D
\c:1546733921*52\$IIMWV,353,T,10.80,N,A*29
\c:1546733921*52\$IIVDR,359.98,T,011.98,M,0.00,N*06
\c:1546733921*52\$IIVHW,183,T,195,M,00.00,N,00.00,K*52
\c:1546733921*52\$IIVWR,006,L,10.80,N,05.56,M,,*25
\c:1546733921*52\$IIVPW,,N,,*1F
\c:1546733922*51\$IIVTG,000.00,T,011.99,M,0.00,N,,,A*61
\c:1546733922*51\$IIMWV,353,R,10.78,N,A*28
\c:1546733922*51\$IIVWT,007,L,10.74,N,05.53,M,,*2C
\c:1546733922*51\$IIHDM,195,M*31
\c:1546733922*51\$IIMWV,352,T,10.59,N,A*2C
\c:1546733922*51\$GPXTE,A,A,,R,N,A*03
\c:1546733922*51\$GPZDA,211530,16,01,2019,00,*40
\c:1546733922*51\$IIDBT,014.59,f,004.45,M,002.40,F*2B
\c:1546733923*50\$GPGLL,3247.222,N,07954.564,W,211530,A,A*59
\c:1546733923*50\$IIHDM,195,M*31
\c:1546733923*50\$IIMWD,174.13,T,186.13,M,10.39,N,05.35,M*41
\c:1546733923*50\$IIMWV,352,R,10.38,N,A*2D
\c:1546733923*50\$IIVDR,359.98,T,011.98,M,0.00,N*06
\c:1546733923*50\$IIVHW,183,T,195,M,00.00,N,00.00,K*52
\c:1546733923*50\$IIVWR,009,L,10.24,N,05.27,M,,*22
\c:1546733923*50\$IIVPW,,N,,*1F
\c:1546733924*57\$IIVTG,000.00,T,011.99,M,0.00,N,,,A*61
\c:1546733924*57\$IIMWV,352,T,10.14,N,A*25
\c:1546733924*57\$IIVWT,008,L,10.14,N,05.22,M,,*23
\c:1546733924*57\$IIHDM,195,M*31
\c:1546733924*57\$IIMWV,351,R,10.32,N,A*24
\c:1546733924*57\$GPXTE,A,A,,R,N,A*03
\c:1546733924*57\$GPZDA,211532,16,01,2019,00,*42
\c:1546733924*57\$IIDBT,014.50,f,004.42,M,002.38,F*2A
\c:1546733925*56\$GPGLL,3247.222,N,07954.564,W,211532,A,A*5B
\c:1546733925*56\$IIHDM,195,M*31
\c:1546733925*56\$IIMWD,173.16,T,185.16,M,10.10,N,05.20,M*4A
\c:1546733925*56\$IIMWV,348,T,10.10,N,A*2A
\c:1546733925*56\$IIVDR,359.98,T,011.98,M,0.00,N*06
\c:1546733925*56\$IIVHW,183,T,195,M,00.00,N,00.00,K*52
\c:1546733925*56\$IIVWR,012,L,10.12,N,05.21,M,,*2B
\c:1546733925*56\$IIVPW,,N,,*1F
\c:1546733926*55\$IIVTG,000.00,T,011.99,M,0.00,N,,,A*61
\c:1546733926*55\$IIMWV,349,R,10.03,N,A*2F
\c:1546733926*55\$IIVWT,012,L,10.01,N,05.15,M,,*28
\c:1546733926*55\$IIHDM,195,M*31
\c:1546733926*55\$IIMWV,347,T,09.99,N,A*2C
\c:1546733926*55\$GPXTE,A,A,,R,N,A*03
\c:1546733926*55\$GPZDA,211534,16,01,2019,00,*44
\c:1546733926*55\$IIDBT,014.76,f,004.50,M,002.43,F*21
\c:1546733927*54\$GPGLL,3247.222,N,07954.564,W,211534,A,A*5D
\c:1546733927*54\$IIHDM,194,M*30
\c:1546733927*54\$IIMWD,171.50,T,183.49,M,09.97,N,05.13,M*41
\c:1546733927*54\$IIMWV,350,R,09.91,N,A*24
\c:1546733927*54\$IIVDR,359.98,T,011.98,M,0.00,N*06
\c:1546733927*54\$IIVHW,182,T,194,M,00.00,N,00.00,K*52
\c:1546733927*54\$IIVWR,010,L,09.85,N,05.07,M,,*2B
\c:1546733927*54\$IIVPW,,N,,*1F
\c:1546733928*5B\$IIVTG,000.00,T,011.99,M,0.00,N,,,A*61
\c:1546733928*5B\$IIMWV,351,T,09.66,N,A*2B
\c:1546733928*5B\$IIVWT,009,L,09.66,N,04.97,M,,*20
\c:1546733928*5B\$IIHDM,194,M*30
\c:1546733928*5B\$IIMWV,352,R,09.66,N,A*2E
\c:1546733928*5B\$GPXTE,A,A,,R,N,A*03
\c:1546733928*5B\$GPZDA,211536,16,01,2019,00,*46
\c:1546733929*5A\$IIDBT,014.63,f,004.46,M,002.41,F*20
\c:1546733929*5A\$GPGLL,3247.222,N,07954.564,W,211536,A,A*5F
\c:1546733929*5A\$IIHDM,194,M*30
\c:1546733929*5A\$IIMWD,176.18,T,188.17,M,09.68,N,04.98,M*48
\c:1546733929*5A\$IIMWV,356,T,09.89,N,A*2D
\c:1546733929*5A\$IIVDR,359.98,T,011.98,M,0.00,N*06
\c:1546733929*5A\$IIVHW,182,T,194,M,00.00,N,00.00,K*52
\c:1546733929*5A\$IIVWR,001,L,09.89,N,05.09,M,,*29
\c:1546733930*52\$IIVPW,,N,,*1F
\c:1546733930*52\$IIVTG,000.00,T,011.99,M,0.00,N,,,A*61
\c:1546733930*52\$IIMWV,358,R,10.22,N,A*2C
\c:1546733930*52\$IIVWT,002,L,10.18,N,05.24,M,,*23
\c:1546733930*52\$IIHDM,194,M*30
\c:1546733930*52\$IIMWV,356,T,10.26,N,A*20
\c:1546733930*52\$GPXTE,A,A,,R,N,A*03
\c:1546733930*52\$GPZDA,211538,16,01,2019,00,*48
\c:1546733931*53\$IIDBT,014.59,f,004.45,M,002.40,F*2B
\c:1546733931*53\$GPGLL,3247.222,N,07954.564,W,211538,A,A*51
\c:1546733931*53\$IIHDM,194,M*30
\c:1546733931*53\$IIMWD,177.95,T,189.94,M,10.49,N,05.40,M*49
\c:1546733931*53\$IIMWV,357,R,10.51,N,A*27
\c:1546733931*53\$IIVDR,359.98,T,011.98,M,0.00,N*06
\c:1546733931*53\$IIVHW,182,T,194,M,00.00,N,00.00,K*52
\c:1546733931*53\$IIVWR,003,L,10.71,N,05.51,M,,*29
\c:1546733932*50\$IIVPW,,N,,*1F
\c:1546733932*50\$IIVTG,000.00,T,011.99,M,0.00,N,,,A*61
\c:1546733932*50\$IIMWV,358,T,10.36,N,A*2F
\c:1546733932*50\$IIVWT,002,L,10.36,N,05.33,M,,*29
\c:1546733932*50\$IIHDM,194,M*30
\c:1546733932*50\$IIMWV,357,R,10.18,N,A*2A
\c:1546733932*50\$GPXTE,A,A,,R,N,A*03
\c:1546733933*51\$GPZDA,211540,16,01,2019,00,*47
\c:1546733933*51\$IIDBT,014.56,f,004.44,M,002.39,F*2B
\c:1546733933*51\$GPGLL,3247.222,N,07954.564,W,211540,A,A*5E
\c:1546733933*51\$IIHDM,194,M*30
\c:1546733933*51\$IIMWD,183.66,T,195.66,M,09.93,N,05.11,M*45
\c:1546733933*51\$IIMWV,359,T,10.34,N,A*2C
\c:1546733933*51\$IIVDR,359.98,T,011.98,M,0.00,N*06
\c:1546733933*51\$IIVHW,182,T,194,M,00.00,N,00.00,K*52
\c:1546733934*56\$IIVWR,010,R,09.89,N,05.09,M,,*37
\c:1546733934*56\$IIVPW,,N,,*1F
\c:1546733934*56\$IIVTG,000.00,T,011.99,M,0.00,N,,,A*61
\c:1546733934*56\$IIMWV,360,R,09.66,N,A*2F
\c:1546733934*56\$IIVWT,001,L,09.64,N,04.96,M,,*2B
\c:1546733934*56\$IIHDM,194,M*30
\c:1546733934*56\$IIMWV,355,T,09.50,N,A*2A
\c:1546733934*56\$GPXTE,A,A,,R,N,A*03
\c:1546733935*57\$GPZDA,211542,16,01,2019,00,*45
\c:1546733935*57\$IIDBT,014.59,f,004.45,M,002.40,F*2B
\c:1546733935*57\$GPGLL,3247.222,N,07954.564,W,211542,A,A*5C
\c:1546733935*57\$IIHDM,194,M*30
\c:1546733935*57\$IIMWD,180.45,T,192.44,M,09.87,N,05.08,M*4D
\c:1546733935*57\$IIMWV,353,R,10.22,N,A*27
\c:1546733935*57\$IIVDR,359.98,T,011.98,M,0.00,N*06
\c:1546733935*57\$IIVHW,182,T,194,M,00.00,N,00.00,K*52
\c:1546733936*54\$IIVWR,001,R,10.55,N,05.43,M,,*30
\c:1546733936*54\$IIVPW,,N,,*1F
\c:1546733936*54\$IIVTG,000.00,T,011.99,M,0.00,N,,,A*61
\c:1546733936*54\$IIMWV,358,T,10.63,N,A*2F
\c:1546733936*54\$IIVWT,002,L,10.63,N,05.47,M,,*2A
\c:1546733936*54\$IIHDM,194,M*30
\c:1546733936*54\$IIMWV,359,R,10.84,N,A*21
\c:1546733936*54\$GPXTE,A,A,,R,N,A*03
\c:1546733937*55\$GPZDA,211544,16,01,2019,00,*43
\c:1546733937*55\$IIDBT,014.56,f,004.44,M,002.39,F*2B
\c:1546733937*55\$GPGLL,3247.222,N,07954.564,W,211544,A,A*5A
\c:1546733937*55\$IIHDM,194,M*30
\c:1546733937*55\$IIMWD,178.33,T,190.33,M,10.76,N,05.54,M*46
\c:1546733937*55\$IIMWV,356,T,10.84,N,A*28
\c:1546733937*55\$IIVDR,359.98,T,011.98,M,0.00,N*06
\c:1546733937*55\$IIVHW,182,T,194,M,00.00,N,00.00,K*52
\c:1546733938*5A\$IIVWR,004,L,10.84,N,05.58,M,,*2D
\c:1546733938*5A\$IIVPW,,N,,*1F
\c:1546733938*5A\$IIVTG,000.00,T,011.99,M,0.00,N,,,A*61
\c:1546733938*5A\$IIMWV,356,R,10.74,N,A*21
\c:1546733938*5A\$IIVWT,004,L,10.73,N,05.52,M,,*29
\c:1546733938*5A\$IIHDM,194,M*30
\c:1546733938*5A\$IIMWV,355,T,10.78,N,A*28
\c:1546733938*5A\$GPXTE,A,A,,R,N,A*03
\c:1546733939*5B\$GPZDA,211546,16,01,2019,00,*41
\c:1546733939*5B\$IIDBT,014.59,f,004.45,M,002.40,F*2B
\c:1546733939*5B\$GPGLL,3247.222,N,07954.564,W,211546,A,A*58
\c:1546733939*5B\$IIHDM,194,M*30
\c:1546733939*5B\$IIMWD,172.96,T,184.96,M,10.61,N,05.46,M*4C
\c:1546733939*5B\$IIMWV,349,R,10.80,N,A*24
\c:1546733939*5B\$IIVDR,359.98,T,011.98,M,0.00,N*06
\c:1546733940*55\$IIVHW,182,T,194,M,00.00,N,00.00,K*52
\c:1546733940*55\$IIVWR,007,L,10.78,N,05.55,M,,*20
\c:1546733940*55\$IIVPW,,N,,*1F
\c:1546733940*55\$IIVTG,000.00,T,011.99,M,0.00,N,,,A*61
\c:1546733940*55\$IIMWV,353,T,10.74,N,A*22
\c:1546733940*55\$IIVWT,007,L,10.74,N,05.53,M,,*2C
\c:1546733940*55\$IIHDM,194,M*30
\c:1546733940*55\$IIMWV,353,R,10.61,N,A*20
\c:1546733941*54\$GPXTE,A,A,,R,N,A*03
\c:1546733941*54\$GPZDA,211547,16,01,2019,00,*40
\c:1546733941*54\$IIDBT,014.63,f,004.46,M,002.41,F*20
\c:1546733941*54\$GPGLL,,,,,211547,V,A*6F
\c:1546733941*54\$IIHDM,194,M*30
\c:1546733941*54\$IIMWD,176.30,T,188.30,M,10.69,N,05.50,M*4B
\c:1546733941*54\$IIMWV,354,T,10.69,N,A*29
\c:1546733941*54\$IIVDR,000.20,T,012.20,M,,N*14
\c:1546733942*57\$IIVHW,182,T,194,M,00.00,N,00.00,K*52
\c:1546733942*57\$IIVWR,006,L,10.94,N,05.63,M,,*26
\c:1546733942*57\$IIVPW,,N,,*1F
\c:1546733942*57\$IIVTG,000.21,T,012.21,M,,N,,,A*7C
\c:1546733942*57\$IIMWV,356,R,11.07,N,A*24
\c:1546733942*57\$IIVWT,004,L,11.04,N,05.68,M,,*21
\c:1546733942*57\$IIHDM,194,M*30
\c:1546733942*57\$IIMWV,355,T,11.02,N,A*24
\c:1546733943*56\$GPXTE,A,A,,R,N,A*03
\c:1546733943*56\$GPZDA,,00,00,1992,16,*4C
\c:1546733943*56\$IIDBT,014.63,f,004.46,M,002.41,F*20
\c:1546733943*56\$GPGLL,,,,,,V,A*6B
\c:1546733943*56\$IIHDM,194,M*30
\c:1546733943*56\$IIMWD,178.20,T,190.20,M,10.78,N,05.55,M*49
\c:1546733943*56\$IIMWV,356,R,10.80,N,A*2A
\c:1546733943*56\$IIVDR,,,,,,N*0E
\c:1546733944*51\$IIVHW,183,T,195,M,00.00,N,00.00,K*52
\c:1546733944*51\$IIVWR,005,L,10.80,N,05.56,M,,*26
\c:1546733944*51\$IIVPW,,N,,*1F
\c:1546733944*51\$IIVTG,001.40,T,013.39,M,,N,,,A*72
\c:1546733944*51\$IIMWV,356,T,10.73,N,A*20
\c:1546733944*51\$IIVWT,002,L,10.55,N,05.43,M,,*2B
\c:1546733944*51\$IIHDM,195,M*31
\c:1546733945*50\$IIMWV,355,R,10.51,N,A*25
\c:1546733945*50\$GPXTE,A,A,,R,N,A*03
\c:1546733945*50\$GPZDA,,00,00,1992,16,*4C
\c:1546733945*50\$IIDBT,014.56,f,004.44,M,002.39,F*2B
\c:1546733945*50\$GPGLL,,,,,,V,A*6B
\c:1546733945*50\$IIHDM,194,M*30
\c:1546733945*50\$IIMWD,177.73,T,189.72,M,10.38,N,05.34,M*4C
\c:1546733945*50\$IIMWV,355,T,10.38,N,A*2C
\c:1546733946*53\$IIVDR,,,,,,N*0E
\c:1546733946*53\$IIVHW,183,T,195,M,00.00,N,00.00,K*52
\c:1546733946*53\$IIVWR,003,L,10.51,N,05.41,M,,*2A
\c:1546733946*53\$IIVPW,,N,,*1F
\c:1546733946*53\$IIVTG,001.40,T,013.39,M,,N,,,A*72
\c:1546733946*53\$IIMWV,359,R,10.55,N,A*2D
\c:1546733946*53\$IIVWT,001,L,10.45,N,05.38,M,,*25
\c:1546733946*53\$IIHDM,195,M*31
\c:1546733947*52\$IIMWV,357,T,10.55,N,A*25
\c:1546733947*52\$GPXTE,A,A,,R,N,A*03
\c:1546733947*52\$GPZDA,,00,00,1992,16,*4C
\c:1546733947*52\$IIDBT,014.53,f,004.43,M,002.39,F*29
\c:1546733947*52\$GPGLL,,,,,,V,A*6B
\c:1546733947*52\$IIHDM,195,M*31
\c:1546733947*52\$IIMWD,179.04,T,191.04,M,10.63,N,05.47,M*40
\c:1546733947*52\$IIMWV,357,R,10.65,N,A*20
\c:1546733948*5D\$IIVDR,,,,,,N*0E
\c:1546733948*5D\$IIVHW,183,T,195,M,00.00,N,00.00,K*52
\c:1546733948*5D\$IIVWR,005,L,10.18,N,05.24,M,,*22
\c:1546733948*5D\$IIVPW,,N,,*1F
\c:1546733948*5D\$IIVTG,001.40,T,013.39,M,,N,,,A*72
\c:1546733948*5D\$IIMWV,357,T,10.26,N,A*21
\c:1546733948*5D\$IIVWT,003,L,09.99,N,05.14,M,,*20
\c:1546733948*5D\$IIHDM,195,M*31
\c:1546733949*5C\$IIMWV,354,R,10.03,N,A*23
\c:1546733949*5C\$GPXTE,A,A,,R,N,A*03
\c:1546733949*5C\$GPZDA,,00,00,1992,16,*4C
\c:1546733949*5C\$IIDBT,014.56,f,004.44,M,002.39,F*2B
\c:1546733949*5C\$GPGLL,,,,,,V,A*6B
\c:1546733949*5C\$IIHDM,195,M*31
\c:1546733949*5C\$IIMWD,179.26,T,191.26,M,10.43,N,05.37,M*45
\c:1546733950*54\$IIMWV,357,T,10.43,N,A*22
\c:1546733950*54\$IIVDR,,,,,,N*0E
\c:1546733950*54\$IIVHW,183,T,195,M,00.00,N,00.00,K*52
\c:1546733950*54\$IIVWR,006,L,10.38,N,05.34,M,,*22
\c:1546733950*54\$IIVPW,,N,,*1F
\c:1546733950*54\$IIVTG,001.40,T,013.39,M,,N,,,A*72
\c:1546733950*54\$IIMWV,357,R,10.08,N,A*2B
\c:1546733950*54\$IIVWT,008,L,10.08,N,05.19,M,,*26
\c:1546733951*55\$IIHDM,194,M*30
\c:1546733951*55\$IIMWV,350,T,10.12,N,A*21
\c:1546733951*55\$GPXTE,A,A,,R,N,A*03
\c:1546733951*55\$GPZDA,000011,31,12,2245,00,*48
\c:1546733951*55\$IIDBT,014.53,f,004.43,M,002.39,F*29
\c:1546733951*55\$GPGLL,,,,,000012,V,A*68
\c:1546733951*55\$IIHDM,194,M*30
\c:1546733951*55\$IIMWD,173.67,T,185.66,M,10.20,N,05.25,M*4D
\c:1546733952*56\$IIMWV,351,R,10.22,N,A*25
\c:1546733952*56\$IIVDR,,,,,,N*0E
\c:1546733952*56\$IIVHW,183,T,195,M,00.00,N,00.00,K*52
\c:1546733952*56\$IIVWR,006,L,10.18,N,05.24,M,,*21
\c:1546733952*56\$IIVPW,,N,,*1F
\c:1546733952*56\$IIVTG,043.65,T,055.65,M,,N,,,A*78
\c:1546733952*56\$IIMWV,352,T,10.24,N,A*26
\c:1546733952*56\$IIVWT,007,L,10.26,N,05.28,M,,*27
\c:1546733953*57\$IIHDM,195,M*31
\c:1546733953*57\$IIMWV,354,R,10.22,N,A*20
\c:1546733953*57\$GPXTE,A,A,,R,N,A*03
\c:1546733953*57\$GPZDA,000013,31,12,2245,00,*4A
\c:1546733953*57\$IIDBT,014.56,f,004.44,M,002.39,F*2B
\c:1546733953*57\$GPGLL,,,,,000014,V,A*6E
\c:1546733953*57\$IIHDM,195,M*31
\c:1546733954*50\$IIMWD,175.83,T,187.82,M,10.26,N,05.28,M*42
\c:1546733954*50\$IIMWV,353,T,10.26,N,A*25
\c:1546733954*50\$IIVDR,,,,,,N*0E
\c:1546733954*50\$IIVHW,183,T,195,M,00.00,N,00.00,K*52
\c:1546733954*50\$IIVWR,005,L,10.47,N,05.39,M,,*24
\c:1546733954*50\$IIVPW,,N,,*1F
\c:1546733954*50\$IIVTG,043.66,T,055.66,M,,N,,,A*78
\c:1546733954*50\$IIMWV,354,R,10.51,N,A*24
\c:1546733955*51\$IIVWT,006,L,10.59,N,05.45,M,,*25
\c:1546733955*51\$IIHDM,194,M*30
\c:1546733955*51\$IIMWV,355,T,10.59,N,A*2B
\c:1546733955*51\$GPXTE,A,A,,R,N,A*03
\c:1546733955*51\$GPZDA,000015,31,12,2245,00,*4C
\c:1546733955*51\$IIDBT,014.53,f,004.43,M,002.39,F*29
\c:1546733955*51\$GPGLL,,,,,000016,V,A*6C
\c:1546733955*51\$IIHDM,194,M*30
\c:1546733956*52\$IIMWD,176.90,T,188.89,M,10.67,N,05.49,M*45
\c:1546733956*52\$IIMWV,355,R,10.69,N,A*2E
\c:1546733956*52\$IIVDR,,,,,,N*0E
\c:1546733956*52\$IIVHW,182,T,194,M,00.00,N,00.00,K*52
\c:1546733956*52\$IIVWR,004,L,10.61,N,05.46,M,,*29
\c:1546733956*52\$IIVPW,,N,,*1F
\c:1546733956*52\$IIVTG,043.67,T,055.67,M,,N,,,A*78
\c:1546733956*52\$IIMWV,355,T,10.53,N,A*21
\c:1546733957*53\$IIVWT,005,L,10.55,N,05.43,M,,*2C
\c:1546733957*53\$IIHDM,195,M*31
\c:1546733957*53\$IIMWV,359,R,10.45,N,A*2C
\c:1546733957*53\$GPXTE,A,A,,R,N,A*03
\c:1546733957*53\$GPZDA,000017,31,12,2245,00,*4E
\c:1546733957*53\$IIDBT,014.56,f,004.44,M,002.39,F*2B
\c:1546733957*53\$GPGLL,,,,,000018,V,A*62
\c:1546733957*53\$IIHDM,195,M*31
\c:1546733958*5C\$IIMWD,178.76,T,190.76,M,10.36,N,05.33,M*43
\c:1546733958*5C\$IIMWV,356,T,10.36,N,A*21
\c:1546733958*5C\$IIVDR,,,,,,N*0E
\c:1546733958*5C\$IIVHW,183,T,195,M,00.00,N,00.00,K*52
\c:1546733958*5C\$IIVWR,002,L,10.32,N,05.31,M,,*29
\c:1546733958*5C\$IIVPW,,N,,*1F
\c:1546733958*5C\$IIVTG,043.68,T,055.68,M,,N,,,A*78
\c:1546733959*5D\$IIMWV,358,R,10.32,N,A*2D
\c:1546733959*5D\$IIVWT,004,L,10.32,N,05.31,M,,*29
\c:1546733959*5D\$IIHDM,195,M*31
\c:1546733959*5D\$IIMWV,356,T,10.32,N,A*25
\c:1546733959*5D\$GPXTE,A,A,,R,N,A*03
\c:1546733959*5D\$GPZDA,000019,31,12,2245,00,*40
\c:1546733959*5D\$IIDBT,014.56,f,004.44,M,002.39,F*2B
\c:1546733959*5D\$GPGLL,,,,,000020,V,A*69
\c:1546733960*57\$IIHDM,195,M*31
\c:1546733960*57\$IIMWD,179.20,T,191.20,M,10.43,N,05.37,M*45
\c:1546733960*57\$IIMWV,357,R,10.47,N,A*20
\c:1546733960*57\$IIVDR,,,,,,N*0E
\c:1546733960*57\$IIVHW,183,T,195,M,00.00,N,00.00,K*52
\c:1546733960*57\$IIVWR,006,L,10.41,N,05.36,M,,*2E
\c:1546733960*57\$IIVPW,,N,,*1F
\c:1546733960*57\$IIVTG,043.69,T,055.69,M,,N,,,A*78
\c:1546733961*56\$IIMWV,353,T,10.43,N,A*26
\c:1546733961*56\$IIVWT,005,L,10.47,N,05.39,M,,*22
\c:1546733961*56\$IIHDM,195,M*31
\c:1546733961*56\$IIMWV,355,R,10.51,N,A*25
\c:1546733961*56\$GPXTE,A,A,,R,N,A*03
\c:1546733961*56\$GPZDA,000021,31,12,2245,00,*4B
\c:1546733961*56\$IIDBT,014.59,f,004.45,M,002.40,F*2B
\c:1546733961*56\$GPGLL,,,,,000022,V,A*6B
\c:1546733962*55\$IIHDM,194,M*30
\c:1546733962*55\$IIMWD,177.92,T,189.92,M,10.51,N,05.41,M*40
\c:1546733962*55\$IIMWV,353,T,10.47,N,A*22
\c:1546733962*55\$IIVDR,,,,,,N*0E
\c:1546733962*55\$IIVHW,183,T,195,M,00.00,N,00.00,K*52
\c:1546733962*55\$IIVWR,005,L,10.55,N,05.43,M,,*2A
\c:1546733962*55\$IIVPW,,N,,*1F
\c:1546733962*55\$IIVTG,043.70,T,055.70,M,,N,,,A*78
\c:1546733963*54\$IIMWV,353,R,10.47,N,A*24
\c:1546733963*54\$IIVWT,007,L,10.43,N,05.37,M,,*2A
\c:1546733963*54\$IIHDM,195,M*31
\c:1546733963*54\$IIMWV,356,T,10.34,N,A*23
\c:1546733963*54\$GPXTE,A,A,,R,N,A*03
\c:1546733963*54\$GPZDA,000023,31,12,2245,00,*49
\c:1546733963*54\$IIDBT,014.53,f,004.43,M,002.39,F*29
\c:1546733963*54\$GPGLL,,,,,000024,V,A*6D
\c:1546733964*53\$IIHDM,195,M*31
\c:1546733964*53\$IIMWD,178.54,T,190.54,M,10.26,N,05.28,M*48
\c:1546733964*53\$IIMWV,355,R,10.32,N,A*20
\c:1546733964*53\$IIVDR,,,,,,N*0E
\c:1546733964*53\$IIVHW,183,T,195,M,00.00,N,00.00,K*52
\c:1546733964*53\$IIVWR,005,L,10.24,N,05.27,M,,*2E
\c:1546733964*53\$IIVPW,,N,,*1F
\c:1546733965*52\$IIVTG,043.72,T,055.71,M,,N,,,A*7B
\c:1546733965*52\$IIMWV,356,T,10.32,N,A*25
\c:1546733965*52\$IIVWT,005,L,10.32,N,05.31,M,,*28
\c:1546733965*52\$IIHDM,195,M*31
\c:1546733965*52\$IIMWV,356,R,10.45,N,A*23
\c:1546733965*52\$GPXTE,A,A,,R,N,A*03
\c:1546733965*52\$GPZDA,000025,31,12,2245,00,*4F
\c:1546733965*52\$IIDBT,014.53,f,004.43,M,002.39,F*29
\c:1546733966*51\$GPGLL,,,,,000026,V,A*6F
\c:1546733966*51\$IIHDM,194,M*30
\c:1546733966*51\$IIMWD,179.51,T,191.51,M,10.80,N,05.56,M*4D
\c:1546733966*51\$IIMWV,356,T,10.84,N,A*28
\c:1546733966*51\$IIVDR,,,,,,N*0E
\c:1546733966*51\$IIVHW,183,T,195,M,00.00,N,00.00,K*52
\c:1546733966*51\$IIVWR,003,L,11.04,N,05.68,M,,*20
\c:1546733966*51\$IIVPW,,N,,*1F
\c:1546733967*50\$IIVTG,043.73,T,055.72,M,,N,,,A*79
\c:1546733967*50\$IIMWV,356,R,11.04,N,A*27
\c:1546733967*50\$IIVWT,004,L,11.00,N,05.66,M,,*2B
\c:1546733967*50\$IIHDM,195,M*31
\c:1546733967*50\$IIMWV,356,T,10.90,N,A*2D
\c:1546733967*50\$GPXTE,A,A,,R,N,A*03
\c:1546733967*50\$GPZDA,000027,31,12,2245,00,*4D
\c:1546733967*50\$IIDBT,014.63,f,004.46,M,002.41,F*20
\c:1546733968*5F\$GPGLL,,,,,000028,V,A*61
\c:1546733968*5F\$IIHDM,195,M*31
\c:1546733968*5F\$IIMWD,176.35,T,188.34,M,10.92,N,05.62,M*4F
\c:1546733968*5F\$IIMWV,356,R,10.84,N,A*2E
\c:1546733968*5F\$IIVDR,,,,,,N*0E
\c:1546733968*5F\$IIVHW,183,T,195,M,00.00,N,00.00,K*52
\c:1546733968*5F\$IIVWR,004,L,10.80,N,05.56,M,,*27
\c:1546733968*5F\$IIVPW,,N,,*1F
\c:1546733969*5E\$IIVTG,043.74,T,055.73,M,,N,,,A*7F
\c:1546733969*5E\$IIMWV,356,T,10.67,N,A*25
\c:1546733969*5E\$IIVWT,004,L,10.67,N,05.49,M,,*26
\c:1546733969*5E\$IIHDM,195,M*31
\c:1546733969*5E\$IIMWV,355,R,10.71,N,A*27
\c:1546733969*5E\$GPXTE,A,A,,R,N,A*03
\c:1546733969*5E\$GPZDA,000030,31,12,2245,00,*4B
\c:1546733970*56\$IIDBT,014.59,f,004.45,M,002.40,F*2B
\c:1546733970*56\$GPGLL,,,,,000030,V,A*68
\c:1546733970*56\$IIHDM,194,M*30
\c:1546733970*56\$IIMWD,176.44,T,188.43,M,10.67,N,05.49,M*4A
\c:1546733970*56\$IIMWV,355,T,10.63,N,A*22
\c:1546733970*56\$IIVDR,,,,,,N*0E
\c:1546733970*56\$IIVHW,182,T,194,M,00.00,N,00.00,K*52
\c:1546733970*56\$IIVWR,006,L,10.65,N,05.48,M,,*21
\c:1546733970*56\$IIVPW,,N,,*1F
\c:1546733971*57\$IIVTG,043.75,T,055.75,M,,N,,,A*78
\c:1546733971*57\$IIMWV,356,R,10.59,N,A*2E
\c:1546733971*57\$IIVWT,005,L,10.55,N,05.43,M,,*2C
\c:1546733971*57\$IIHDM,194,M*30
\c:1546733971*57\$IIMWV,356,T,10.57,N,A*26
\c:1546733971*57\$GPXTE,A,A,,R,N,A*03
\c:1546733971*57\$GPZDA,211622,16,01,2019,00,*40
\c:1546733972*54\$IIDBT,014.53,f,004.43,M,002.39,F*29
\c:1546733972*54\$GPGLL,3247.220,N,07954.564,W,211622,A,A*5B
\c:1546733972*54\$IIHDM,194,M*30
\c:1546733972*54\$IIMWD,175.73,T,187.73,M,10.63,N,05.47,M*4B
\c:1546733972*54\$IIMWV,354,R,10.61,N,A*27
\c:1546733972*54\$IIVDR,359.98,T,011.98,M,0.00,N*06
\c:1546733972*54\$IIVHW,182,T,194,M,00.00,N,00.00,K*52
\c:1546733972*54\$IIVWR,006,L,10.65,N,05.48,M,,*21
\c:1546733973*55\$IIVPW,,N,,*1F
\c:1546733973*55\$IIVTG,154.76,T,166.76,M,0.00,N,,,A*60
\c:1546733973*55\$IIMWV,353,T,10.59,N,A*2D
\c:1546733973*55\$IIVWT,007,L,10.59,N,05.45,M,,*24
\c:1546733973*55\$IIHDM,194,M*30
\c:1546733974*52\$IIMWV,355,R,10.71,N,A*27
\c:1546733974*52\$GPXTE,A,A,,R,N,A*03
\c:1546733974*52\$GPZDA,211624,16,01,2019,00,*46
\c:1546733974*52\$IIDBT,014.53,f,004.43,M,002.39,F*29
\c:1546733974*52\$GPGLL,3247.220,N,07954.564,W,211624,A,A*5D
\c:1546733974*52\$IIHDM,194,M*30
\c:1546733974*52\$IIMWD,175.85,T,187.84,M,10.57,N,05.44,M*4E
\c:1546733974*52\$IIMWV,355,T,10.49,N,A*2A
\c:1546733974*52\$IIVDR,359.98,T,011.98,M,0.00,N*06
\c:1546733974*52\$IIVHW,182,T,194,M,00.00,N,00.00,K*52
\c:1546733974*52\$IIVWR,006,L,10.47,N,05.39,M,,*27
\c:1546733975*53\$IIVPW,,N,,*1F
\c:1546733975*53\$IIVTG,154.76,T,166.76,M,0.00,N,,,A*60
\c:1546733975*53\$IIMWV,353,R,10.51,N,A*23
\c:1546733975*53\$IIVWT,007,L,10.47,N,05.39,M,,*20
\c:1546733975*53\$IIHDM,194,M*30
\c:1546733975*53\$IIMWV,353,T,10.43,N,A*26
\c:1546733975*53\$GPXTE,A,A,,R,N,A*03
\c:1546733976*50\$GPZDA,211626,16,01,2019,00,*44
\c:1546733976*50\$IIDBT,014.56,f,004.44,M,002.39,F*2B
\c:1546733976*50\$GPGLL,3247.220,N,07954.564,W,211626,A,A*5F
\c:1546733976*50\$IIHDM,194,M*30
\c:1546733976*50\$IIMWD,175.15,T,187.15,M,10.43,N,05.37,M*4E
\c:1546733976*50\$IIMWV,358,R,10.45,N,A*2D
\c:1546733976*50\$IIVDR,359.98,T,011.98,M,0.00,N*06
\c:1546733976*50\$IIVHW,182,T,194,M,00.00,N,00.00,K*52
\c:1546733977*51\$IIVWR,005,L,10.28,N,05.29,M,,*2C
\c:1546733977*51\$IIVPW,,N,,*1F
\c:1546733977*51\$IIVTG,154.76,T,166.76,M,0.00,N,,,A*60
\c:1546733977*51\$IIMWV,357,T,10.47,N,A*26
\c:1546733977*51\$IIVWT,003,L,10.47,N,05.39,M,,*24
\c:1546733977*51\$IIHDM,194,M*30
\c:1546733977*51\$IIMWV,353,R,10.55,N,A*27
\c:1546733977*51\$GPXTE,A,A,,R,N,A*03
\c:1546733978*5E\$GPZDA,211628,16,01,2019,00,*4A
\c:1546733978*5E\$IIDBT,014.59,f,004.45,M,002.40,F*2B
\c:1546733978*5E\$GPGLL,3247.220,N,07954.564,W,211628,A,A*51
\c:1546733978*5E\$IIHDM,194,M*30
\c:1546733978*5E\$IIMWD,176.95,T,188.95,M,10.57,N,05.44,M*43
\c:1546733978*5E\$IIMWV,353,T,10.55,N,A*21
\c:1546733978*5E\$IIVDR,359.98,T,011.98,M,0.00,N*06
\c:1546733978*5E\$IIVHW,182,T,194,M,00.00,N,00.00,K*52
\c:1546733979*5F\$IIVWR,007,L,10.65,N,05.48,M,,*20
\c:1546733979*5F\$IIVPW,,N,,*1F
\c:1546733979*5F\$IIVTG,154.76,T,166.76,M,0.00,N,,,A*60
\c:1546733979*5F\$IIMWV,355,R,10.55,N,A*21
\c:1546733979*5F\$IIVWT,005,L,10.53,N,05.42,M,,*2B
\c:1546733979*5F\$IIHDM,195,M*31
\c:1546733979*5F\$IIMWV,354,T,10.49,N,A*2B
\c:1546733979*5F\$GPXTE,A,A,,R,N,A*03
\c:1546733980*59\$GPZDA,211630,16,01,2019,00,*43
\c:1546733980*59\$IIDBT,014.59,f,004.45,M,002.40,F*2B
\c:1546733980*59\$GPGLL,3247.220,N,07954.564,W,211630,A,A*58
\c:1546733980*59\$IIHDM,195,M*31
\c:1546733980*59\$IIMWD,176.63,T,188.63,M,10.38,N,05.34,M*4D
\c:1546733980*59\$IIMWV,354,R,10.41,N,A*25
\c:1546733980*59\$IIVDR,359.98,T,011.98,M,0.00,N*06
\c:1546733981*58\$IIVHW,183,T,195,M,00.00,N,00.00,K*52
\c:1546733981*58\$IIVWR,007,L,10.45,N,05.38,M,,*25
\c:1546733981*58\$IIVPW,,N,,*1F
\c:1546733981*58\$IIVTG,154.76,T,166.76,M,0.00,N,,,A*60
\c:1546733981*58\$IIMWV,353,T,10.38,N,A*2A
\c:1546733981*58\$IIVWT,007,L,10.38,N,05.34,M,,*25
\c:1546733981*58\$IIHDM,195,M*31
\c:1546733981*58\$IIMWV,353,R,10.47,N,A*24
\c:1546733981*58\$GPXTE,A,A,,R,N,A*03
\c:1546733982*5B\$GPZDA,211632,16,01,2019,00,*41
\c:1546733982*5B\$IIDBT,014.63,f,004.46,M,002.41,F*20
\c:1546733982*5B\$GPGLL,3247.220,N,07954.563,W,211632,A,A*5D
\c:1546733982*5B\$IIHDM,195,M*31
\c:1546733982*5B\$IIMWD,176.13,T,188.12,M,10.10,N,05.20,M*43
\c:1546733982*5B\$IIMWV,354,T,10.10,N,A*27
\c:1546733982*5B\$IIVDR,359.98,T,011.98,M,0.00,N*06
\c:1546733983*5A\$IIVHW,183,T,195,M,00.00,N,00.00,K*52
\c:1546733983*5A\$IIVWR,006,L,09.99,N,05.14,M,,*23
\c:1546733983*5A\$IIVPW,,N,,*1F
\c:1546733983*5A\$IIVTG,154.76,T,166.76,M,0.00,N,,,A*60
\c:1546733983*5A\$IIMWV,355,R,09.91,N,A*21
\c:1546733983*5A\$IIVWT,006,L,09.89,N,05.09,M,,*28
\c:1546733983*5A\$IIHDM,195,M*31
\c:1546733983*5A\$IIMWV,354,T,09.89,N,A*2F
\c:1546733984*5D\$GPXTE,A,A,,R,N,A*03
\c:1546733984*5D\$GPZDA,211634,16,01,2019,00,*47
\c:1546733984*5D\$IIDBT,014.56,f,004.44,M,002.39,F*2B
\c:1546733984*5D\$GPGLL,3247.220,N,07954.563,W,211634,A,A*5B
\c:1546733984*5D\$IIHDM,195,M*31
\c:1546733984*5D\$IIMWD,176.30,T,188.30,M,10.06,N,05.18,M*4E
\c:1546733984*5D\$IIMWV,354,R,10.08,N,A*28
\c:1546733984*5D\$IIVDR,359.98,T,011.98,M,0.00,N*06
\c:1546733985*5C\$IIVHW,183,T,195,M,00.00,N,00.00,K*52
\c:1546733985*5C\$IIVWR,007,L,10.08,N,05.19,M,,*2F
\c:1546733985*5C\$IIVPW,,N,,*1F
\c:1546733985*5C\$IIVTG,154.76,T,166.76,M,0.00,N,,,A*60
\c:1546733985*5C\$IIMWV,352,T,10.01,N,A*21
\c:1546733985*5C\$IIVWT,008,L,10.01,N,05.15,M,,*23
\c:1546733985*5C\$IIHDM,195,M*31
\c:1546733985*5C\$IIMWV,353,R,09.99,N,A*2F
\c:1546733986*5F\$GPXTE,A,A,,R,N,A*03
\c:1546733986*5F\$GPZDA,211636,16,01,2019,00,*45
\c:1546733986*5F\$IIDBT,014.56,f,004.44,M,002.39,F*2B
\c:1546733986*5F\$GPGLL,3247.220,N,07954.563,W,211636,A,A*59
\c:1546733986*5F\$IIHDM,195,M*31
\c:1546733986*5F\$IIMWD,173.93,T,185.93,M,10.01,N,05.15,M*4C
\c:1546733986*5F\$IIMWV,351,T,10.01,N,A*22
\c:1546733987*5E\$IIVDR,359.98,T,011.98,M,0.00,N*06
\c:1546733987*5E\$IIVHW,183,T,195,M,00.00,N,00.00,K*52
\c:1546733987*5E\$IIVWR,009,L,09.85,N,05.07,M,,*23
\c:1546733987*5E\$IIVPW,,N,,*1F
\c:1546733987*5E\$IIVTG,154.76,T,166.76,M,0.00,N,,,A*60
\c:1546733987*5E\$IIMWV,353,R,09.91,N,A*27
\c:1546733987*5E\$IIVWT,007,L,09.89,N,05.09,M,,*29
\c:1546733987*5E\$IIHDM,195,M*31
\c:1546733988*51\$IIMWV,352,T,09.81,N,A*21
\c:1546733988*51\$GPXTE,A,A,,R,N,A*03
\c:1546733988*51\$GPZDA,211638,16,01,2019,00,*4B
\c:1546733988*51\$IIDBT,014.59,f,004.45,M,002.40,F*2B
\c:1546733988*51\$GPGLL,3247.220,N,07954.563,W,211638,A,A*57
\c:1546733988*51\$IIHDM,195,M*31
\c:1546733988*51\$IIMWD,172.46,T,184.46,M,09.77,N,05.03,M*42
\c:1546733988*51\$IIMWV,350,R,09.81,N,A*25
\c:1546733989*50\$IIVDR,359.98,T,011.98,M,0.00,N*06
\c:1546733989*50\$IIVHW,183,T,195,M,00.00,N,00.00,K*52
\c:1546733989*50\$IIVWR,010,L,09.71,N,05.00,M,,*27
\c:1546733989*50\$IIVPW,,N,,*1F
\c:1546733989*50\$IIVTG,154.76,T,166.76,M,0.00,N,,,A*60
\c:1546733989*50\$IIMWV,349,T,09.79,N,A*2C
\c:1546733989*50\$IIVWT,010,L,09.83,N,05.06,M,,*2A
\c:1546733989*50\$IIHDM,195,M*31
\c:1546733990*58\$IIMWV,352,R,09.81,N,A*27
\c:1546733990*58\$GPXTE,A,A,,R,N,A*03
\c:1546733990*58\$GPZDA,211640,16,01,2019,00,*44
\c:1546733990*58\$IIDBT,014.59,f,004.45,M,002.40,F*2B
\c:1546733990*58\$GPGLL,3247.220,N,07954.563,W,211640,A,A*58
\c:1546733990*58\$IIHDM,195,M*31
\c:1546733990*58\$IIMWD,173.49,T,185.48,M,09.64,N,04.96,M*4C
\c:1546733990*58\$IIMWV,351,T,09.64,N,A*29
\c:1546733991*59\$IIVDR,359.98,T,011.98,M,0.00,N*06
\c:1546733991*59\$IIVHW,183,T,195,M,00.00,N,00.00,K*52
\c:1546733991*59\$IIVWR,011,L,09.69,N,04.99,M,,*2E
\c:1546733991*59\$IIVPW,,N,,*1F
\c:1546733991*59\$IIVTG,154.76,T,166.76,M,0.00,N,,,A*60
\c:1546733991*59\$IIMWV,348,R,09.69,N,A*2A
\c:1546733991*59\$IIVWT,012,L,09.69,N,04.99,M,,*2B
\c:1546733991*59\$IIHDM,195,M*31
\c:1546733992*5A\$IIMWV,351,T,09.68,N,A*25
\c:1546733992*5A\$GPXTE,A,A,,R,N,A*03
\c:1546733992*5A\$GPZDA,211642,16,01,2019,00,*46
\c:1546733992*5A\$IIDBT,014.56,f,004.44,M,002.39,F*2B
\c:1546733992*5A\$GPGLL,3247.220,N,07954.563,W,211642,A,A*5A
\c:1546733992*5A\$IIHDM,195,M*31
\c:1546733992*5A\$IIMWD,172.09,T,184.09,M,09.73,N,05.01,M*44
\c:1546733993*5B\$IIMWV,350,R,09.75,N,A*2E
\c:1546733993*5B\$IIVDR,359.98,T,011.98,M,0.00,N*06
\c:1546733993*5B\$IIVHW,183,T,195,M,00.00,N,00.00,K*52
\c:1546733993*5B\$IIVWR,011,L,09.79,N,05.04,M,,*2A
\c:1546733993*5B\$IIVPW,,N,,*1F
\c:1546733993*5B\$IIVTG,154.76,T,166.76,M,0.00,N,,,A*60
\c:1546733993*5B\$IIMWV,352,T,09.68,N,A*26
\c:1546733993*5B\$IIVWT,010,L,09.64,N,04.96,M,,*2B
\c:1546733994*5C\$IIHDM,195,M*31
\c:1546733994*5C\$IIMWV,346,R,09.75,N,A*29
\c:1546733994*5C\$GPXTE,A,A,,R,N,A*03
\c:1546733994*5C\$GPZDA,211644,16,01,2019,00,*40
\c:1546733994*5C\$IIDBT,014.59,f,004.45,M,002.40,F*2B
\c:1546733994*5C\$GPGLL,3247.220,N,07954.563,W,211644,A,A*5C
\c:1546733994*5C\$IIHDM,195,M*31
\c:1546733994*5C\$IIMWD,172.26,T,184.25,M,09.97,N,05.13,M*4E
\c:1546733995*5D\$IIMWV,350,T,09.97,N,A*24
\c:1546733995*5D\$IIVDR,359.98,T,011.98,M,0.00,N*06
\c:1546733995*5D\$IIVHW,183,T,195,M,00.00,N,00.00,K*52
\c:1546733995*5D\$IIVWR,007,L,10.14,N,05.22,M,,*2A
\c:1546733995*5D\$IIVPW,,N,,*1F
\c:1546733995*5D\$IIVTG,154.76,T,166.76,M,0.00,N,,,A*60
\c:1546733995*5D\$IIMWV,355,R,10.24,N,A*27
\c:1546733995*5D\$IIVWT,004,L,10.22,N,05.26,M,,*2E
\c:1546733996*5E\$IIHDM,195,M*31
\c:1546733996*5E\$IIMWV,358,T,10.24,N,A*2C
\c:1546733996*5E\$GPXTE,A,A,,R,N,A*03
\c:1546733996*5E\$GPZDA,211646,16,01,2019,00,*42
\c:1546733996*5E\$IIDBT,014.59,f,004.45,M,002.40,F*2B
\c:1546733996*5E\$GPGLL,3247.220,N,07954.563,W,211646,A,A*5E
\c:1546733996*5E\$IIHDM,195,M*31
\c:1546733997*5F\$IIMWD,183.65,T,195.65,M,10.06,N,05.18,M*48
\c:1546733997*5F\$IIMWV,001,R,10.08,N,A*2B
\c:1546733997*5F\$IIVDR,359.98,T,011.98,M,0.00,N*06
\c:1546733997*5F\$IIVHW,183,T,195,M,00.00,N,00.00,K*52
\c:1546733997*5F\$IIVWR,007,L,10.03,N,05.16,M,,*2B
\c:1546733997*5F\$IIVPW,,N,,*1F
\c:1546733997*5F\$IIVTG,154.76,T,166.76,M,0.00,N,,,A*60
\c:1546733997*5F\$IIMWV,355,T,10.18,N,A*2E
\c:1546733998*50\$IIVWT,004,L,09.97,N,05.13,M,,*2E
\c:1546733998*50\$IIHDM,195,M*31
\c:1546733998*50\$IIMWV,352,R,10.22,N,A*26
\c:1546733998*50\$GPXTE,A,A,,R,N,A*03
\c:1546733998*50\$GPZDA,211648,16,01,2019,00,*4C
\c:1546733998*50\$IIDBT,014.59,f,004.45,M,002.40,F*2B
\c:1546733998*50\$GPGLL,3247.220,N,07954.563,W,211648,A,A*50
\c:1546733998*50\$IIHDM,195,M*31
\c:1546733999*51\$IIMWD,174.89,T,186.89,M,10.14,N,05.22,M*48
\c:1546733999*51\$IIMWV,353,T,10.14,N,A*24
\c:1546733999*51\$IIVDR,359.98,T,011.98,M,0.00,N*06
\c:1546733999*51\$IIVHW,183,T,195,M,00.00,N,00.00,K*52
\c:1546733999*51\$IIVWR,007,L,10.12,N,05.21,M,,*2F
\c:1546733999*51\$IIVPW,,N,,*1F
\c:1546733999*51\$IIVTG,154.76,T,166.76,M,0.00,N,,,A*60
\c:1546733999*51\$IIMWV,353,R,10.04,N,A*23
\c:1546734000*5F\$IIVWT,007,L,09.83,N,05.06,M,,*2C
\c:1546734000*5F\$IIHDM,194,M*30
\c:1546734000*5F\$IIMWV,354,T,09.83,N,A*25
\c:1546734000*5F\$GPXTE,A,A,,R,N,A*03
\c:1546734000*5F\$GPZDA,211650,16,01,2019,00,*45
\c:1546734000*5F\$IIDBT,014.63,f,004.46,M,002.41,F*20
\c:1546734000*5F\$GPGLL,3247.220,N,07954.563,W,211650,A,A*59
\c:1546734000*5F\$IIHDM,194,M*30
\c:1546734001*5E\$IIMWD,168.94,T,180.93,M,09.66,N,04.97,M*46
\c:1546734001*5E\$IIMWV,347,R,09.69,N,A*25
\c:1546734001*5E\$IIVDR,359.98,T,011.98,M,0.00,N*06
\c:1546734001*5E\$IIVHW,182,T,194,M,00.00,N,00.00,K*52
\c:1546734001*5E\$IIVWR,008,L,09.69,N,04.99,M,,*26
\c:1546734001*5E\$IIVPW,,N,,*1F
\c:1546734001*5E\$IIVTG,154.76,T,166.76,M,0.00,N,,,A*60
\c:1546734002*5D\$IIMWV,349,T,09.50,N,A*27
\c:1546734002*5D\$IIVWT,012,L,09.54,N,04.91,M,,*2D
\c:1546734002*5D\$IIHDM,194,M*30
\c:1546734002*5D\$IIMWV,349,R,09.48,N,A*28
\c:1546734002*5D\$GPXTE,A,A,,R,N,A*03
\c:1546734002*5D\$GPZDA,211652,16,01,2019,00,*47
\c:1546734002*5D\$IIDBT,014.63,f,004.46,M,002.41,F*20
\c:1546734002*5D\$GPGLL,3247.220,N,07954.563,W,211652,A,A*5B
\c:1546734003*5C\$IIHDM,194,M*30
\c:1546734003*5C\$IIMWD,172.49,T,184.48,M,09.38,N,04.83,M*41
\c:1546734003*5C\$IIMWV,351,T,09.38,N,A*20
\c:1546734003*5C\$IIVDR,359.98,T,011.98,M,0.00,N*06
\c:1546734003*5C\$IIVHW,182,T,194,M,00.00,N,00.00,K*52
\c:1546734003*5C\$IIVWR,012,L,09.29,N,04.78,M,,*26
\c:1546734003*5C\$IIVPW,,N,,*1F
\c:1546734003*5C\$IIVTG,154.76,T,166.76,M,0.00,N,,,A*60
\c:1546734004*5B\$IIMWV,348,R,09.38,N,A*2E
\c:1546734004*5B\$IIVWT,012,L,09.34,N,04.81,M,,*2A
\c:1546734004*5B\$IIHDM,194,M*30
\c:1546734004*5B\$IIMWV,351,T,09.33,N,A*2B
\c:1546734004*5B\$GPXTE,A,A,,R,N,A*03
\c:1546734004*5B\$GPZDA,211654,16,01,2019,00,*41
\c:1546734004*5B\$IIDBT,014.56,f,004.44,M,002.39,F*2B
